location_code,short_name,location_name,address,address_2,city,state,postal_code,country,timezone_name,timezone_offset,latitude,longitude,region
ALBYNYYC,alb3,Albany3,194 WASHINGTON AVE,,ALBANY,NEW YORK,12210,US,EASTERN TIME,-5,42.656502,-73.763,
AMSTNLAQ,ams1,Amsterdam1,STEKKENBERGWEG 4,RM 0001,AMSTERDAM,NOORD-HOLLAND,1105 AJ,NL,CET  CENTRAL EUROPEAN,1,52.2962,4.948801,
ATLNGAHP,atl1,Atlanta1,345 COURTLAND ST NE,,ATLANTA,GEORGIA,30308,US,EASTERN TIME,-5,33.765099,-84.383728,
ATLDGAUY,atl2,Atlanta2,180 PEACHTREE ST NW,,ATLANTA,GEORGIA,30303,US,EASTERN TIME,-5,33.759109,-84.38826,
ATLBGAHE,atl3,Atlanta3,874 DEKALB AVE NE,,ATLANTA,GEORGIA,30307,US,EASTERN TIME,-5,33.754749,-84.358749,
ATLNGAMQ,atl4,Atlanta4,56 MARIETTA ST NW,,ATLANTA,GEORGIA,30303,US,EASTERN TIME,-5,33.755428,-84.391579,
ATLNGAQS,atl5,Atlanta5,250 WILLIAMS ST NW,,ATLANTA,GEORGIA,30303,US,EASTERN TIME,-5,33.761631,-84.391304,
ATLCGA06,atl6,Atlanta6,953 DONNELLY AVE SW,,ATLANTA,GEORGIA,30310,US,EASTERN TIME,-5,33.728588,-84.418854,
AUSTTXUH,aus1,Austin1,4207 SMITH SCHOOL RD,,AUSTIN,TEXAS,78744,US,CENTRAL TIME,-6,30.19714,-97.713402,
BLTMMDSN,bal1,Baltimore1,300 W LEXINGTON ST,,BALTIMORE,MARYLAND,21201,US,EASTERN TIME,-5,39.29174,-76.619659,
BTRGLA04,btr5,BatonRouge5,301 MAIN ST,,BATON ROUGE,LOUISIANA,70801,US,CENTRAL TIME,-6,30.451469,-91.188225,
BRLNGEAM,ber1,Berlin1,GRADESTR 60,,BERLIN,BERLIN,12347,DE,CET  CENTRAL EUROPEAN,1,52.45269,13.42841,
CMBRMAOR,bos1,Boston1,300 BENT ST,,CAMBRIDGE,MASSACHUSETTS,2141,US,EASTERN TIME,-5,42.367569,-71.086388,
EVREBG01,bru1,Brussels1,2 AVENUE LEON GROSJEAN,,EVERE,BRUSSELS,1140,BE,CET  CENTRAL EUROPEAN,1,50.85767,4.411853,
BFLPNYBF,buf1,Buffalo1,240 SCOTT ST,,BUFFALO,NEW YORK,14204,US,EASTERN TIME,-5,42.875774,-78.86731,
SBTNVTDP,btv1,Burlington1,102 KIMBALL AVE,,SOUTH BURLINGTON,VERMONT,5403,US,EASTERN TIME,-5,44.456139,-73.148003,
CHRLNCRL,clt1,Charlotte1,4021 ROSE LAKE DR,,CHARLOTTE,NORTH CAROLINA,28217,US,EASTERN TIME,-5,35.17865,-80.928322,
CHVLVACF,cho1,Charlottesville1,324 W MAIN ST,,CHARLOTTESVILLE,VIRGINIA,22903,US,EASTERN TIME,-5,38.03022,-78.486351,
CHCGILGM,chi1,Chicago1,111 N CANAL ST,,CHICAGO,ILLINOIS,60606,US,CENTRAL TIME,-6,41.883781,-87.639801,
CHCTILWC,chi2,Chicago2,900 N KINGSBURY ST,,CHICAGO,ILLINOIS,60610,US,CENTRAL TIME,-6,41.898911,-87.644753,
CNCNOHBV,cin1,Cincinnati1,400 PIKE ST,,CINCINNATI,OHIO,45202,US,EASTERN TIME,-5,39.102589,-84.503113,
CLEVOH97,cle1,Cleveland1,4000 CHESTER AVE,,CLEVELAND,OHIO,44103,US,EASTERN TIME,-5,41.505211,-81.657753,
CLGNGE01,cgn1,Cologne1,STOLBERGER STR 200,,KOLN,NORTH RHINE-WESTPHALIA,50933,DE,PACIFIC TIME,-8,50.942459,6.89344,
CLMBSC44,cae1,Columbia1,520 WHALEY ST,,COLUMBIA,SOUTH CAROLINA,29201,US,EASTERN TIME,-5,33.984051,-81.037628,
CLMDOHHW,clb1,Columbus1,376 W BROAD ST,BUILDING A,COLUMBUS,OHIO,43215,US,EASTERN TIME,-5,39.960976,-83.011032,
CPNHDKAI,cop1,Copenhagen1,HORSKAETTEN 3,G/F,TAASTRUP,CAPITAL,2630,DK,CET  CENTRAL EUROPEAN,1,55.662197,12.301456,
CDPTPAAF,cou1,Coudersport1,712 N MAIN ST,,COUDERSPORT,PENNSYLVANIA,16915,US,EASTERN TIME,-5,41.780121,-78.019859,
DLLATX37,dal1,Dallas1,3180 IRVING BLVD,,DALLAS,TEXAS,75247,US,CENTRAL TIME,-6,32.806999,-96.868629,
DLLVTXDQ,dal2,Dallas2,3439 IRVING BLVD,,DALLAS,TEXAS,75247,US,CENTRAL TIME,-6,32.8088,-96.876411,
DNVTCO56,den1,Denver1,1850 N PEARL ST,,DENVER,COLORADO,80203,US,MOUNTAIN TIME,-7,39.745239,-104.979454,
DNVRCO26,den2,Denver2,910 15TH ST,,DENVER,COLORADO,80202,US,MOUNTAIN TIME,-7,39.745659,-104.995567,
SFLDMIDN,det1,Detroit1,19675 W 10 MILE RD,,SOUTHFIELD,MICHIGAN,48075,US,EASTERN TIME,-5,42.472389,-83.237907,
DBLNIRBE,dub1,Dublin1,4027 KINGSWOOD ROAD,,DUBLIN,DUBLIN,D24 AX06,IE,"DUBLIN,EDINBURGH,LONDON,LISBON",0,53.290989,-6.41527,
DSDFGEAK,dus1,Dusseldorf1,37 IN DER STEELE,,DUSSELDORF,NORTH RHINE-WESTPHALIA,40599,DE,CET  CENTRAL EUROPEAN,1,51.187439,6.86822,
ELPUTXAY,elp1,ElPaso1,501 W OVERLAND AVE,,EL PASO,TEXAS,79901,US,CENTRAL TIME,-6,31.75585,-106.493378,
FRNKGEAT,frf1,Frankfurt1,R??SSELSHEIMER STR 22,,FRANKFURT AM MAIN,HESSE,60326,DE,CET  CENTRAL EUROPEAN,1,50.103035,8.620184,
TMRCFL03,fll1,FtLauderdale1,2121 W PROSPECT RD,,TAMARAC,FLORIDA,33309,US,EASTERN TIME,-5,26.184078,-80.171837,
FTMYFL02,fmy1,FtMyers1,3520 PALM AVE,,FORT MYERS,FLORIDA,33901,US,EASTERN TIME,-5,26.612343,-81.856491,
GRCYNYRD,gnc1,GardenCity1,71 CLINTON RD,,GARDEN CITY,NEW YORK,11530,US,EASTERN TIME,-5,40.72953,-73.61924,
GENVSZ07,gen1,Geneva1,RUE DE LA CONF??D??RATION 6,,GENEVE,GENEVE ,1204,CH,CET  CENTRAL EUROPEAN,1,46.203609,6.144255,
HMBGGEAK,ham1,Hamburg1,S??DERSTR 198,,HAMBURG,HAMBURG,20537,DE,CET  CENTRAL EUROPEAN,1,53.547932,10.04298,
HRBGPAGU,har1,Harrisburg1,1037 N 7TH ST,,HARRISBURG,PENNSYLVANIA,17102,US,EASTERN TIME,-5,40.2701,-76.88195,
HRFRCTBE,hfd1,Hartford1,155 LOCUST ST,,HARTFORD,CONNECTICUT,6114,US,EASTERN TIME,-5,41.745049,-72.66526,
HSTQTX02,hou1,Houston1,12001 NORTH FWY,,HOUSTON,TEXAS,77060,US,CENTRAL TIME,-6,29.943069,-95.416801,
IPLWINRO,ind1,Indianapolis1,1902 S EAST ST,,INDIANAPOLIS,INDIANA,46225,US,EASTERN TIME,-5,39.741417,-86.150841,
JCSNMSHA,45292,Jackson1,142 LEFLEURS SQ,,JACKSON,MISSISSIPPI,39211,US,CENTRAL TIME,-6,32.360168,-90.148178,
JCVNFL07,jax1,Jacksonville1,6263 PHILIPS HWY,,JACKSONVILLE,FLORIDA,32216,US,EASTERN TIME,-5,30.258614,-81.610764,
KSCYMO11,kac1,KansasCity1,1100 WALNUT ST,,KANSAS CITY,MISSOURI,64106,US,CENTRAL TIME,-6,39.100571,-94.582619,
NLVGNVBV,lvg1,LasVegas1,1 AEROJET WAY,,NORTH LAS VEGAS,NEVADA,89030,US,PACIFIC TIME,-8,36.236549,-115.117401,
LXTNKYYY,lex1,Lexington1,565 W MAIN ST,,LEXINGTON,KENTUCKY,40507,US,EASTERN TIME,-5,38.05122,-84.502151,
NLRKAR41,lit1,LittleRock1,912 PINE ST,,NORTH LITTLE ROCK,ARKANSAS,72114,US,CENTRAL TIME,-6,34.778027,-92.298576,
LONDEN02,lon1,London1,6 BRAHAM ST,6,LONDON,ENGLAND,E1 8EE,GB,"DUBLIN,EDINBURGH,LONDON,LISBON",0,51.513962,-0.07248,
LONDENEH,lon2,London2,260-266 GOSWELL RD,WEST HOARE,LONDON,GREATER LONDON,EC1V 7EB,GB,"DUBLIN,EDINBURGH,LONDON,LISBON",0,51.529259,-0.10162,
LONDENDE,lon3,London3,47 MILLHARBOUR,47,LONDON,TOWER HAMLETS,E14 9TR,GB,PACIFIC TIME,-8,51.496849,-0.0188,
LONDENCY,lon4,London4,CORIANDER AVENUE,TELEHOUSE NORTH,LONDON,ENGLAND,E14 2AA,GB,"DUBLIN,EDINBURGH,LONDON,LISBON",0,51.511517,-0.001787,
LSANCA54,lax1,LosAngeles1,818 W 7TH ST,,LOS ANGELES,CALIFORNIA,90017,US,PACIFIC TIME,-8,34.048908,-118.259354,
LSANCA72,lax2,LosAngeles2,611 WILSHIRE BLVD,,LOS ANGELES,CALIFORNIA,90017,US,PACIFIC TIME,-8,34.048302,-118.256172,
LSAOCAAW,lax3,LosAngeles3,10201 W PICO BLVD,BUILDING 101,LOS ANGELES,CALIFORNIA,90064,US,PACIFIC TIME,-8,34.052078,-118.410431,
ANHNCA03,lax4,LosAngeles4,2461 W LA PALMA AVE,,ANAHEIM,CALIFORNIA,92801,US,PACIFIC TIME,-8,33.84964,-117.971054,
LSVNKYJH,lou1,Louisville1,848 S 8TH ST,,LOUISVILLE,KENTUCKY,40203,US,EASTERN TIME,-5,38.243191,-85.765961,
MDRDSPCL,mad1,Madrid1,71 CALLE ALBASANZ,2,MADRID,MADRID,28037,ES,CET  CENTRAL EUROPEAN,1,40.439499,-3.621445,
MNCHENAN,man1,Manchesteruk1,LLOYD STREET NORTH,WILLIAMS HOUSE,MANCHESTER,LANCASHIRE,M15 6SE,GB,"DUBLIN,EDINBURGH,LONDON,LISBON",0,53.464088,-2.23636,
MMPKTNVZ,mem1,Memphis1,3993 CROWFARN DR,,MEMPHIS,TENNESSEE,38118,US,CENTRAL TIME,-6,35.028854,-89.930717,
MIATFLAD,mia1,Miami1,49 NW 5TH ST,,MIAMI,FLORIDA,33128,US,EASTERN TIME,-5,25.77924,-80.195038,
MILNITSP,mln1,Milan1,21 VIA CALDERA,BUILDING E,MILANO,MILANO,20153,IT,CET  CENTRAL EUROPEAN,1,45.47736,9.102018,
MPLTMNZB,min1,Minneapolis1,715 N 2ND ST,,MINNEAPOLIS,MINNESOTA,55401,US,CENTRAL TIME,-6,44.9888,-93.276863,
MOBLAL35,mob4,Mobile4,110 SHORT TEXAS ST,,MOBILE,ALABAMA,36603,US,CENTRAL TIME,-6,30.675785,-88.041267,
MNCHGEAO,mun1,Munich1,WAMSLERSTR 8,,MUNCHEN,BAVARIA,81829,DE,CET  CENTRAL EUROPEAN,1,48.135658,11.66268,
NSVMTNFS,nvl4,Nashville4,2530 PERIMETER PLACE DR,,NASHVILLE,TENNESSEE,37214,US,CENTRAL TIME,-6,36.149818,-86.679771,
MTRELANJ,nor1,NewOrleans1,3220 LAUSAT ST,,METAIRIE,LOUISIANA,70001,US,CENTRAL TIME,-6,29.97225,-90.157867,
NWRKNJMD,nwr1,Newark1,165 HALSEY ST,,NEWARK,NEW JERSEY,7102,US,EASTERN TIME,-5,40.736778,-74.173309,
NYCMNY83,nyc1,NewYork1,111 8TH AVE,,NEW YORK,NEW YORK,10011,US,EASTERN TIME,-5,40.740841,-74.001968,
NRFLVABN,ngu1,Norfolk1,2600 ELTHAM AVE,,NORFOLK,VIRGINIA,23513,US,EASTERN TIME,-5,36.879051,-76.221519,
EMVLCA04,oak1,Oakland1,5000 HOLLIS ST,,EMERYVILLE,CALIFORNIA,94608,US,PACIFIC TIME,-8,37.83506,-122.286674,
OKCZOKZC,okc1,OklahomaCity1,620 S SANTA FE AVE,,OKLAHOMA CITY,OKLAHOMA,73003,US,CENTRAL TIME,-6,35.332954,-97.512062,
BLLVNEBL,oma1,Omaha1,1514 CHANDLER RD W,,BELLEVUE,NEBRASKA,68147,US,CENTRAL TIME,-6,41.185532,-95.936073,
ORLFFLEJ,orl1,Orlando1,380 S LAKE DESTINY DR,,ORLANDO,FLORIDA,32810,US,EASTERN TIME,-5,28.615879,-81.389404,
OSLONWAQ,osl1,Oslo1,9 HANS M??LLER GASMANNS V,,OSLO,OSLO,598,NO,CET  CENTRAL EUROPEAN,1,59.938431,10.83498,
PARSFRAW,par1,Paris1,55 AVENUE DES CHAMPS PIERREUX,,NANTERRE,HAUTS-DE-SEINE,92012,FR,CET  CENTRAL EUROPEAN,1,48.888081,2.21519,
PHLAPAFG,phi1,Philadelphia1,401 N BROAD ST,,PHILADELPHIA,PENNSYLVANIA,19108,US,EASTERN TIME,-5,39.959667,-75.161995,
PHNDAZ91,phx1,Phoenix1,811 S 16TH ST,,PHOENIX,ARIZONA,85034,US,MOUNTAIN TIME,-7,33.43964,-112.04686,
PITDPANG,pit3,Pittsburgh3,200 TECHNOLOGY DR,,PITTSBURGH,PENNSYLVANIA,15219,US,EASTERN TIME,-5,40.429909,-79.959763,
PTLDORWA,por2,Portland2,707 SW WASHINGTON ST,UNIONBANK TOWER,PORTLAND,OREGON,97205,US,PACIFIC TIME,-8,45.521149,-122.67923,
PRAGCKAS,prg1,Prague1,1428/47 NAD ELEKTR?üRNOU,,PRAHA,PRAHA 10,106 00,CZ,CET  CENTRAL EUROPEAN,1,50.060169,14.48293,
MNJTNJAB,prn1,Princeton1,4260 US HIGHWAY 1,,MONMOUTH JUNCTION,NEW JERSEY,8852,US,EASTERN TIME,-5,40.37566,-74.583,
RLGHNCJV,ral1,Raleigh1,5301 DEPARTURE DR,,RALEIGH,NORTH CAROLINA,27616,US,EASTERN TIME,-5,35.854481,-78.597038,
RLGHNCLM,ral2,Raleigh2,1 TURNER ST,,RALEIGH,NORTH CAROLINA,27607,US,EASTERN TIME,-5,35.7924,-78.68264,
RCHNVAKQ,rch1,Richmond1,8851 PARK CENTRAL DR,,RICHMOND,VIRGINIA,23227,US,EASTERN TIME,-5,37.646778,-77.438438,
WSCRCAHW,sac1,Sacramento1,1075 TRIANGLE CT,,WEST SACRAMENTO,CALIFORNIA,95605,US,PACIFIC TIME,-8,38.58691,-121.529884,
SLKDUTYI,slc1,SaltLakeCity1,572 S DELONG ST,,SALT LAKE CITY,UTAH,84104,US,MOUNTAIN TIME,-7,40.75631,-111.953835,
SNAQTXKY,sat1,SanAntonio1,5130 SERVICE CENTER DR,,SAN ANTONIO,TEXAS,78218,US,CENTRAL TIME,-6,29.476376,-98.39064,
SNDACAGL,sdg1,SanDiego1,8929 AERO DR,,SAN DIEGO,CALIFORNIA,92123,US,PACIFIC TIME,-8,32.808971,-117.135902,
SNFCCASY,sfo1,SanFrancisco1,185 BERRY ST,,SAN FRANCISCO,CALIFORNIA,94107,US,PACIFIC TIME,-8,37.77668,-122.392143,
SNVACAID,sjo1,SanJose1,1380 KIFER RD,,SUNNYVALE,CALIFORNIA,94086,US,PACIFIC TIME,-8,37.373482,-121.98761,
PTTNPAAR,scr1,Scranton1,1180 SATHERS DR,,PITTSTON,PENNSYLVANIA,18640,US,EASTERN TIME,-5,41.315563,-75.715874,
STTNWAHO,sea1,Seattle1,1000 DENNY WAY,,SEATTLE,WASHINGTON,98109,US,PACIFIC TIME,-8,47.619061,-122.33651,
STLSMOPL,stl1,StLouis1,1015 LOCUST ST,,SAINT LOUIS,MISSOURI,63101,US,CENTRAL TIME,-6,38.630421,-90.194923,
SMFRCTPU,stm1,Stamford1,21 HARBOR VIEW AVE,,STAMFORD,CONNECTICUT,6902,US,EASTERN TIME,-5,41.047741,-73.530937,
STCGPADN,sce1,StateCollege1,101 INNOVATION BLVD,,STATE COLLEGE,PENNSYLVANIA,16803,US,EASTERN TIME,-5,40.83326,-77.842392,
STKHSWAQ,stk1,Stockholm1,36 MARIEH??LLSV??GEN,,BROMMA,STOCKHOLM COUNTY,168 65,SE,CET  CENTRAL EUROPEAN,1,59.361958,17.957554,
SPBGFLSE,stp1,StPetersburg1,100 CENTRAL AVE,,SAINT PETERSBURG,FLORIDA,33701,US,EASTERN TIME,-5,27.77079,-82.634758,
SYRCNYTO,syr1,Syracuse1,282.93 MP 282.93 EXIT 36,,SYRACUSE,NEW YORK,13211,US,EASTERN TIME,-5,43.10054,-76.144539,
TLHSFL01,tal2,Tallahassee2,2075 MARYLAND CIR,,TALLAHASSEE,FLORIDA,32303,US,EASTERN TIME,-5,30.477489,-84.349754,
TAMRFLWS,tmp1,Tampa1,7909 WOODLAND CENTER BLVD,,TAMPA,FLORIDA,33614,US,EASTERN TIME,-5,28.0186,-82.523422,
BUVLTN01,tri1,TriCities1,170 BIRCH ST,,BLOUNTVILLE,TENNESSEE,37617,US,EASTERN TIME,-5,36.531479,-82.310715,
TULTOKEB,tul1,Tulsa1,419 E 1ST ST,,TULSA,OKLAHOMA,74120,US,CENTRAL TIME,-6,36.15707,-95.987137,
TULUOKBR,tul2,Tulsa2,18 W ARCHER ST,,TULSA,OKLAHOMA,74103,US,CENTRAL TIME,-6,36.157238,-95.993378,
TUSTCAFT,tus1,Tustin1,14452 FRANKLIN AVE,,TUSTIN,CALIFORNIA,92780,US,PACIFIC TIME,-8,33.717197,-117.806969,
VINNASAX,vie1,Vienna1,LOUIS-H??FLIGER-GASSE 10,GEB??UDE 5,WIEN,WIEN,1210,AT,CET  CENTRAL EUROPEAN,1,48.269348,16.410595,
WRSWPDAV,waw1,Warsaw1,ALEJE JEROZOLIMSKIE 65/79,,WARSZAWA,MASOVIAN,00-697,PL,CET  CENTRAL EUROPEAN,1,52.227753,21.004318,
MCLNVA23,wdc1,Washington1,1755 OLD MEADOW RD,ROOSEVELT BUILDING,MC LEAN,VIRGINIA,22102,US,EASTERN TIME,-5,38.920231,-77.211578,
RSTNVA91,wdc2,Washington2,12369 SUNRISE VALLEY DR,,RESTON,VIRGINIA,20191,US,EASTERN TIME,-5,38.9482,-77.371719,
WHWKNJAN,wee1,Weehawken1,300 BOULEVARD E,,WEEHAWKEN,NEW JERSEY,7086,US,EASTERN TIME,-5,40.761581,-74.026268,
WCHUKSHH,wch1,Wichita1,266 N MAIN ST,,WICHITA,KANSAS,67202,US,CENTRAL TIME,-6,37.689445,-97.337799,
ZRCHSZAW,zur1,Zurich1,235 HARDSTRASSE,,ZURICH,ZURICH ,8005,CH,CET  CENTRAL EUROPEAN,1,47.387661,8.51902,
ASBNVACY,wdc3,Washington3,21715 FILIGREE CT,,ASHBURN,VIRGINIA,20147,US,EASTERN TIME,-5,39.016491,-77.459084,
AUSXTXZT,aus2,Austin2,500 CHICON ST,BUILDING B,AUSTIN,TEXAS,78702,US,CENTRAL TIME,-6,30.26112,-97.722923,
AUSWTXJY,aus3,Austin3,1825 KRAMER LN,BUILDING A,AUSTIN,TEXAS,78758,US,CENTRAL TIME,-6,30.385269,-97.709114,
CHCGILDT,chi3,Chicago3,350 E CERMAK RD,,CHICAGO,ILLINOIS,60616,US,CENTRAL TIME,-6,41.85302,-87.618889,
CHCGILCP,chi4,Chicago4,600 S FEDERAL ST,,CHICAGO,ILLINOIS,60605,US,CENTRAL TIME,-6,41.87429,-87.629921,
CHCGILAL,chi5,Chicago5,151 N MICHIGAN AVE,,CHICAGO,ILLINOIS,60601,US,CENTRAL TIME,-6,41.88475,-87.624138,
ARLHILNS,chi6,Chicago6,1305 E ALGONQUIN RD,,ARLINGTON HEIGHTS,ILLINOIS,60005,US,CENTRAL TIME,-6,42.031158,-87.953552,
JPLNMOFF,jln1,Joplin1,5615 GATEWAY DR,,JOPLIN,MISSOURI,64804,US,CENTRAL TIME,-6,36.990459,-94.463913,
CHCSILHR,chi7,Chicago7,600 W CHICAGO AVE,,CHICAGO,ILLINOIS,60654,US,CENTRAL TIME,-6,41.897381,-87.643723,
NYCSNYOO,nyc2,NewYork2,85 10TH AVE,,NEW YORK,NEW YORK,10011,US,EASTERN TIME,-5,40.743031,-74.00779,
NYCMNYOV,nyc3,NewYork3,395 HUDSON ST,,NEW YORK,NEW YORK,10014,US,EASTERN TIME,-5,40.729389,-74.007172,
NYCMNYBQ,nyc4,NewYork4,65 BROADWAY,,NEW YORK,NEW YORK,10006,US,EASTERN TIME,-5,40.70718,-74.012352,
NYCMNYZR,nyc5,NewYork5,60 HUDSON ST,,NEW YORK,NEW YORK,10013,US,EASTERN TIME,-5,40.717907,-74.008751,
NYCPNYYK,nyc6,NewYork6,601 W 26TH ST,,NEW YORK,NEW YORK,10001,US,EASTERN TIME,-5,40.751541,-74.006851,
NYCNNYVT,nyc7,NewYork7,150 VARICK ST,,NEW YORK,NEW YORK,10013,US,EASTERN TIME,-5,40.72604,-74.005531,
STTLWAWB,sea3,Seattle3,2001 6TH AVE,,SEATTLE,WASHINGTON,98121,US,PACIFIC TIME,-8,47.614391,-122.338722,
STTOWAGL,sea4,Seattle4,1505 5TH AVE,,SEATTLE,WASHINGTON,98101,US,PACIFIC TIME,-8,47.610851,-122.336189,
STTQWA09,sea5,Seattle5,527 FAIRVIEW AVE N,,SEATTLE,WASHINGTON,98109,US,PACIFIC TIME,-8,47.623928,-122.334396,
ASBNVALJ,wdc4,Washington4,21691 FILIGREE CT,BUILDING E,ASHBURN,VIRGINIA,20147,US,EASTERN TIME,-5,39.01651,-77.46199,
VINNVACE,wdc5,Washington5,8502 TYCO RD,,VIENNA,VIRGINIA,22182,US,EASTERN TIME,-5,38.931454,-77.239403,
VINNVA97,wdc6,Washington6,8619 WESTWOOD CENTER DR,,VIENNA,VIRGINIA,22182,US,EASTERN TIME,-5,38.927738,-77.248604,
WASHDCWV,wdc7,Washington7,900 2ND ST NE,,WASHINGTON,DISTRICT OF COLUMBIA,20002,US,EASTERN TIME,-5,38.901482,-77.003601,
WASHDC89,wdc8,Washington8,1828 L ST NW,,WASHINGTON,DISTRICT OF COLUMBIA,20036,US,EASTERN TIME,-5,38.903519,-77.042938,
HRNDVAVI,wdc9,Washington9,251 EXCHANGE PL,,HERNDON,VIRGINIA,20170,US,EASTERN TIME,-5,38.956699,-77.381844,
LSANCACM,lax5,LosAngeles5,600 WILSHIRE BLVD,,LOS ANGELES,CALIFORNIA,90017,US,PACIFIC TIME,-8,34.047859,-118.256561,
ATLDGADG,atl7,Atlanta7,275 DECATUR ST SE,,ATLANTA,GEORGIA,30312,US,EASTERN TIME,-5,33.749752,-84.380943,
HSTGTX05,hou2,Houston2,2300 LYONS AVE,,HOUSTON,TEXAS,77020,US,CENTRAL TIME,-6,29.771387,-95.346451,
HSTPTXVH,hou3,Houston3,1124 HARDY ST,,HOUSTON,TEXAS,77020,US,CENTRAL TIME,-6,29.771324,-95.351044,
HSTQTX05,hou4,Houston4,300 RICHEY RD,,HOUSTON,TEXAS,77090,US,CENTRAL TIME,-6,29.998009,-95.429428,
HSTZTXUB,hou5,Houston5,2202 NANCE ST,,HOUSTON,TEXAS,77020,US,CENTRAL TIME,-6,29.767851,-95.34745,
OKBRILCS,chi8,Chicago8,1111 W 22ND ST,,OAK BROOK,ILLINOIS,60523,US,CENTRAL TIME,-6,41.84631,-87.946289,
PPLNNEAS,oma2,Omaha2,1410 GOLD COAST RD,,PAPILLION,NEBRASKA,68046,US,CST,-6,41.139603,-96.036995,
DLLSTX97,dal3,Dallas3,1950 N STEMMONS FWY,,DALLAS,TEXAS,75207,US,CENTRAL TIME,-6,32.800758,-96.819412,
DLLSTX64,dal4,Dallas4,1201 MAIN ST,,DALLAS,TEXAS,75202,US,CENTRAL TIME,-6,32.780449,-96.802071,
DLLSTX37,dal5,Dallas5,2323 BRYAN ST,UNIVISION TOWER,DALLAS,TEXAS,75201,US,CENTRAL TIME,-6,32.787312,-96.794289,
DLLSTXLD,dal6,Dallas6,400 S AKARD ST,,DALLAS,TEXAS,75202,US,CENTRAL TIME,-6,32.778141,-96.798203,
DLLGTX17,dal7,Dallas7,4101 BRYAN ST,BUILDING 9,DALLAS,TEXAS,75204,US,CENTRAL TIME,-6,32.797989,-96.780998,
DLLSTXAX,dal8,Dallas8,2223 VICTORY AVE,,DALLAS,TEXAS,75219,US,CENTRAL TIME,-6,32.784752,-96.810287,
DLLSTXQM,dal9,Dallas9,15303 DALLAS PKWY,,ADDISON,TEXAS,75001,US,CENTRAL TIME,-6,32.958729,-96.82235,
AUSVTXNG,aus4,Austin4,1122 S CAPITAL OF TEXAS HWY,,AUSTIN,TEXAS,78746,US,CENTRAL TIME,-6,30.283159,-97.824074,
CHCGILAB,chi9,Chicago9,200 N LA SALLE ST,,CHICAGO,ILLINOIS,60601,US,CENTRAL TIME,-6,41.886028,-87.632797,
ATLNGAMA,atl8,Atlanta8,55 MARIETTA ST NW,,ATLANTA,GEORGIA,30303,US,EASTERN TIME,-5,33.755901,-84.39106,
PLALCA01,sjo2,SanJose2,529 BRYANT ST,,PALO ALTO,CALIFORNIA,94301,US,PACIFIC TIME,-8,37.445869,-122.160828,
SNJUCACL,sjo3,SanJose3,11 GREAT OAKS BLVD,,SAN JOSE,CALIFORNIA,95119,US,PACIFIC TIME,-8,37.241459,-121.782822,
ORLFFLQR,orl2,Orlando2,440 W KENNEDY BLVD,,ORLANDO,FLORIDA,32810,US,EASTERN TIME,-5,28.617451,-81.393242,
ORLDFL42,orl3,Orlando3,130 WEBER ST,Adelphia POP,ORLANDO,FLORIDA,32803,US,EASTERN TIME,-5,28.558201,-81.375969,
ORLEFLCB,orl4,Orlando4,1 S ORANGE AVE,One S Orange TW HUB,ORLANDO,FLORIDA,32801,US,EASTERN TIME,-5,28.54199,-81.378838,
ORLDFLOE,orl5,Orlando5,111 N ORANGE AVE,,ORLANDO,FLORIDA,32801,US,EASTERN TIME,-5,28.54393,-81.378532,
SFLDMIAP,det4,Detroit4,24660 LAHSER RD,,SOUTHFIELD,MICHIGAN,48033,US,EASTERN TIME,-5,42.469868,-83.259888,
SFLDMITO,det2,Detroit2,21355 MELROSE AVE,,SOUTHFIELD,MICHIGAN,48075,US,EASTERN TIME,-5,42.447048,-83.252342,
DTRTMIFL,det3,Detroit3,1860 GRATIOT AVE,,DETROIT,MICHIGAN,48207,US,EASTERN TIME,-5,42.346386,-83.035713,
DTRTMITK,det5,Detroit5,1965 PORTER ST,,DETROIT,MICHIGAN,48216,US,EASTERN TIME,-5,42.325161,-83.06942,
PFTPMIHU,det6,Detroit6,5655 CARPENTER RD,,YPSILANTI,MICHIGAN,48197,US,EASTERN TIME,-5,42.206429,-83.678947,
BTRGLA12,btr2,BatonRouge2,445 NORTH BLVD,,BATON ROUGE,LOUISIANA,70802,US,CENTRAL TIME,-6,30.44758,-91.186478,
BTRGLALN,btr3,BatonRouge3,8549 UNITED PLAZA BLVD,,BATON ROUGE,LOUISIANA,70809,US,CENTRAL TIME,-6,30.41371,-91.095474,
NWRKDEFJ,nde1,NewarkDE1,504 INTERCHANGE BLVD,,NEWARK,DELAWARE,19711,US,EASTERN TIME,-5,39.659691,-75.781311,
SLKDUT11,slc2,SaltLakeCity2,3670 W 500 S,,SALT LAKE CITY,UTAH,84104,US,MOUNTAIN TIME,-7,40.75882,-111.978432,
SLKDUTTX,slc3,SaltLakeCity3,5035 W HAROLD GATTY DR,,SALT LAKE CITY,UTAH,84116,US,MOUNTAIN TIME,-7,40.780811,-112.011162,
CHRLMI01,lsg1,Lansing1,125 W MCCLURE ST,,CHARLOTTE,MICHIGAN,48813,US,EASTERN TIME,-5,42.570171,-84.836098,
TRMNTX93,mdl1,Midland1,3200 LA FORCE BLVD,,MIDLAND,TEXAS,79706,US,CST,-6,31.928894,-102.212532,
VHRNTXAS,vhn1,VanHorn1,144163 I 10,,VAN HORN,TEXAS,79855,US,CENTRAL TIME,-6,31.041607,-104.81176,
CRCHTX93,crc1,CorpusChristi1,606 N CARANCAHUA ST,,CORPUS CHRISTI,TEXAS,78401,US,CENTRAL TIME,-6,27.79545,-97.3974,
CHRMNC72,clt2,Charlotte2,1027 N CHURCH ST,,CHARLOTTE,NORTH CAROLINA,28206,US,EASTERN TIME,-5,35.235439,-80.833817,
JCVLFLUW,jax2,Jacksonville2,5555 CASSIDY RD,,JACKSONVILLE,FLORIDA,32254,US,EASTERN TIME,-5,30.316238,-81.742264,
JCVNFLFV,jax3,Jacksonville3,608 W ADAMS ST,,JACKSONVILLE,FLORIDA,32204,US,EASTERN TIME,-5,30.328911,-81.665237,
JCVLFLNJ,jax4,Jacksonville4,404 N JULIA ST,,JACKSONVILLE,FLORIDA,32202,US,EASTERN TIME,-5,30.330414,-81.661316,
JCVLFLAI,jax5,Jacksonville5,4814 PHILLIPS HWY,,JACKSONVILLE,FLORIDA,32207,US,EASTERN TIME,-5,30.27198,-81.623894,
BKFDCAKT,bfl2,Bakersfield2,1430 TRUXTUN AVE,,BAKERSFIELD,CALIFORNIA,93301,US,PACIFIC TIME,-8,35.37405,-119.017311,
BRTLTX01,brt1,Bartlett1,857 STHWY 95,,BARTLETT,TEXAS,76511,US,CENTRAL TIME,-6,30.787895,-97.428619,
BRSWCACI,bsw2,Barstow2,251 SANDSTONE,,BARSTOW,CALIFORNIA,92311,US,PACIFIC TIME,-8,34.885204,-117.077759,
RCTPOHAC,cle3,Cleveland3,4199 KINROSS LAKES PKWY,,RICHFIELD,OHIO,44286,US,EASTERN TIME,-5,41.223129,-81.637054,
SCHLMIBD,scl1,Schoolcraft1,400 WALNUT ST,,SCHOOLCRAFT,MICHIGAN,45087,US,EASTERN TIME,-5,45.956619,-86.242638,
AUSWTXDM,aus5,Austin5,9230 NEILS THOMPSON DR,,AUSTIN,TEXAS,78758,US,CENTRAL TIME,-6,30.381041,-97.733772,
ALBRNMJW,aqq1,Albuquerque1,104 GOLD AVE SE,,ALBUQUERQUE,NEW MEXICO,87102,US,MOUNTAIN TIME,-7,35.082657,-106.645866,
NYCMNYRP,nyc8,NewYork8,30 ROCKEFELLER PLZ,GE BUILDING,NEW YORK,NEW YORK,10112,US,EASTERN TIME,-5,40.758839,-73.978813,
CLEVOHIB,cle2,Cleveland2,1621 EUCLID AVE,,CLEVELAND,OHIO,44115,US,EASTERN TIME,-5,41.501461,-81.680313,
SCRMCAWC,sac2,Sacramento2,770 L ST,,SACRAMENTO,CALIFORNIA,95814,US,PACIFIC TIME,-8,38.578602,-121.497604,
BFLONYGO,buf2,Buffalo2,325 DELAWARE AVE,FISHER ASSOCIATES,BUFFALO,NEW YORK,14202,US,EASTERN TIME,-5,42.89307,-78.875023,
BFLONYSE,buf3,Buffalo3,101 LASALLE AVE,,BUFFALO,NEW YORK,14214,US,EASTERN TIME,-5,42.94603,-78.826653,
MIAUFLWS,mia2,Miami2,50 NE 9TH ST,,MIAMI,FLORIDA,33132,US,EASTERN TIME,-5,25.782331,-80.193214,
MIASFLTT,mia3,Miami3,36 NE 2ND ST,,MIAMI,FLORIDA,33132,US,EASTERN TIME,-5,25.775829,-80.192947,
MIAMFLLR,mia4,Miami4,100 NE 80TH TER,,MIAMI,FLORIDA,33138,US,EASTERN TIME,-5,25.84844,-80.194702,
TAMQFLBZ,tmp2,Tampa2,5907 HAMPTON OAKS PKWY,,TAMPA,FLORIDA,33610,US,EASTERN TIME,-5,28.00392,-82.35817,
TAMSFLDE,tmp3,Tampa3,655 N FRANKLIN ST,,TAMPA,FLORIDA,33602,US,EASTERN TIME,-5,27.94969,-82.458328,
TAMPFLEM,tmp4,Tampa4,412 E MADISON ST,,TAMPA,FLORIDA,33602,US,EASTERN TIME,-5,27.94908,-82.4571,
BSTPMALL,bos2,Boston2,1 SUMMER ST,,BOSTON,MASSACHUSETTS,2110,US,EASTERN TIME,-5,42.354671,-71.060242,
SNFECALN,sfo2,SanFrancisco2,650 TOWNSEND ST,,SAN FRANCISCO,CALIFORNIA,94103,US,PACIFIC TIME,-8,37.77103,-122.402893,
SNFCCAMM,sfo3,SanFrancisco3,200 PAUL AVE,,SAN FRANCISCO,CALIFORNIA,94124,US,PACIFIC TIME,-8,37.723461,-122.398262,
SNJTCA19,sjo4,SanJose4,534 STOCKTON AVE,,SAN JOSE,CALIFORNIA,95126,US,PACIFIC TIME,-8,37.338451,-121.910179,
SNTDCADZ,sjo5,SanJose5,3045 RAYMOND ST,,SANTA CLARA,CALIFORNIA,95054,US,PACIFIC TIME,-8,37.376999,-121.952072,
LSANCARC,lax6,LosAngeles6,624 S GRAND AVE,,LOS ANGELES,CALIFORNIA,90017,US,PACIFIC TIME,-8,34.047909,-118.255524,
LSANCAVA,lax7,LosAngeles7,1200 W 7TH ST,,LOS ANGELES,CALIFORNIA,90017,US,PACIFIC TIME,-8,34.05125,-118.266113,
LSAJCAWZ,lax8,LosAngeles8,530 W 6TH ST,,LOS ANGELES,CALIFORNIA,90014,US,PACIFIC TIME,-8,34.048351,-118.25518,
LSANCAJW,lax9,LosAngeles9,600 W 7TH ST,,LOS ANGELES,CALIFORNIA,90017,US,PACIFIC TIME,-8,34.04734,-118.257469,
THOKCA41,lax10,LosAngeles10,2545 W HILLCREST DR,,THOUSAND OAKS,CALIFORNIA,91320,US,PACIFIC TIME,-8,34.188671,-118.932602,
STLSMOZC,stl2,StLouis2,900 WALNUT ST,,SAINT LOUIS,MISSOURI,63102,US,CENTRAL TIME,-6,38.625069,-90.195381,
BRVWILCU,chi10,Chicago10,2101 ROBERTS DR,,BROADVIEW,ILLINOIS,60155,US,CENTRAL TIME,-6,41.8545,-87.858398,
ASBNVABK,wdc10,Washington10,21711 FILIGREE CT,EQUINIX DC1,ASHBURN,VIRGINIA,20147,US,EASTERN TIME,-5,39.015579,-77.460373,
PLAOTXGP,dal10,Dallas10,2400 DALLAS PKWY,,PLANO,TEXAS,75093,US,CENTRAL TIME,-6,33.03196,-96.828308,
CLMCOHFI,clb6,Columbus6,266 N 5TH ST,,COLUMBUS,OHIO,43215,US,EASTERN TIME,-5,39.96843,-82.995834,
RSTNVAGX,wdc11,Washington11,1881 CAMPUS COMMONS DR,,RESTON,VIRGINIA,20191,US,EASTERN TIME,-5,38.94376,-77.335991,
BHPKFL05,tmp5,Tampa5,500 N WESTSHORE BLVD,,TAMPA,FLORIDA,33609,US,EASTERN TIME,-5,27.94906,-82.524803,
CNCOOHKX,cin2,Cincinnati2,1248 BUDD ST,,CINCINNATI,OHIO,45203,US,EASTERN TIME,-5,39.102982,-84.53875,
CNCOOHRG,cin3,Cincinnati3,1428 W 8TH ST,,CINCINNATI,OHIO,45203,US,EASTERN TIME,-5,39.104721,-84.541351,
CNCNOHFH,cin4,Cincinnati4,105 E 4TH ST,,CINCINNATI,OHIO,45202,US,EASTERN TIME,-5,39.099979,-84.510834,
NRWDOHFH,cin5,Cincinnati5,4030 SMITH RD,,CINCINNATI,OHIO,45209,US,EASTERN TIME,-5,39.150906,-84.445793,
CLMBOHQC,clb3,Columbus3,2545 FARMERS DR,,COLUMBUS,OHIO,43235,US,EASTERN TIME,-5,40.106522,-83.083244,
DNVRCOAR,den3,Denver3,1670 BROADWAY,,DENVER,COLORADO,80202,US,MOUNTAIN TIME,-7,39.742992,-104.986938,
ENWDCONM,den4,Denver4,7807 E PEAKVIEW AVE,,CENTENNIAL,COLORADO,80111,US,MOUNTAIN TIME,-7,39.59964,-104.898277,
STLSMOGZ,stl3,StLouis3,210 N TUCKER BLVD,,SAINT LOUIS,MISSOURI,63101,US,CENTRAL TIME,-6,38.629292,-90.197044,
DSPRMOAG,stl4,StLouis4,12444 POWERSCOURT DR,,SAINT LOUIS,MISSOURI,63131,US,CENTRAL TIME,-6,38.606339,-90.44986,
JCVLFLID,jax6,Jacksonville6,1 INDEPENDENT DR,,JACKSONVILLE,FLORIDA,32202,US,EASTERN TIME,-5,30.32588,-81.658875,
PHNXAZUI,phx4,Phoenix4,2120 N CENTRAL AVE,LEVEL3 POP (BROADWING),PHOENIX,ARIZONA,85004,US,MOUNTAIN TIME,-7,33.471371,-112.074409,
TEMPAZWK,phx7,Phoenix7,2005 E TECHNOLOGY CIR,,TEMPE,ARIZONA,85284,US,MOUNTAIN TIME,-7,33.344822,-111.900536,
PHNBAZAP,phx2,Phoenix2,17 E VIRGINIA AVE,L3 POP (WILLIAMS COMM),PHOENIX,ARIZONA,85004,US,MOUNTAIN TIME,-7,33.476372,-112.072693,
PHNXAZ19,phx5,Phoenix5,120 E VAN BUREN ST,,PHOENIX,ARIZONA,85004,US,MOUNTAIN TIME,-7,33.451889,-112.071899,
SCDNAZBK,phx6,Phoenix6,15333 N PIMA RD,,SCOTTSDALE,ARIZONA,85260,US,MOUNTAIN TIME,-7,33.625149,-111.889183,
BLTPMDHM,bal2,Baltimore2,122 S EDEN ST,,BALTIMORE,MARYLAND,21231,US,EASTERN TIME,-5,39.289322,-76.598854,
NYCMNYCZ,nyc9,NewYork9,25 BROADWAY,,NEW YORK,NEW YORK,10004,US,EASTERN TIME,-5,40.705738,-74.013603,
NYCMNYQO,nyc10,NewYork10,325 HUDSON ST,,NEW YORK,NEW YORK,10013,US,EASTERN TIME,-5,40.726849,-74.007584,
NYCNNYDB,nyc11,NewYork11,32 OLD SLIP,,NEW YORK,NEW YORK,10005,US,EASTERN TIME,-5,40.7038,-74.008163,
CMBRMAAW,bos3,Boston3,1 MAIN ST,,CAMBRIDGE,MASSACHUSETTS,2142,US,EASTERN TIME,-5,42.362251,-71.080299,
PHLAPA45,phi2,Philadelphia2,3020 MARKET ST,,PHILADELPHIA,PENNSYLVANIA,19104,US,EASTERN TIME,-5,39.954578,-75.184799,
PHLAPALU,phi3,Philadelphia3,2401 LOCUST ST,,PHILADELPHIA,PENNSYLVANIA,19103,US,EASTERN TIME,-5,39.950329,-75.180023,
PHLAPAKK,phi4,Philadelphia4,701 MARKET ST,,PHILADELPHIA,PENNSYLVANIA,19106,US,EASTERN TIME,-5,39.95108,-75.15197,
STTLWAHN,sea6,Seattle6,1511 6TH AVE,,SEATTLE,WASHINGTON,98101,US,PACIFIC TIME,-8,47.611469,-122.335083,
NRTWPAFQ,phi5,Philadelphia5,1000 FORGE AVE,,NORRISTOWN,PENNSYLVANIA,19403,US,EASTERN TIME,-5,40.12709,-75.408829,
MIANFLHW,mia5,Miami5,200 SE 1ST ST,,MIAMI,FLORIDA,33131,US,EASTERN TIME,-5,25.773085,-80.189774,
MIAMFL98,mia6,Miami6,100 BISCAYNE BLVD,NEW WORLD TOWER,MIAMI,FLORIDA,33132,US,EASTERN TIME,-5,25.77556,-80.18811,
MIAMFLDI,mia7,Miami7,701 BRICKELL AVE,,MIAMI,FLORIDA,33131,US,EASTERN TIME,-5,25.766951,-80.189209,
SNJSCAJN,sjo6,SanJose6,55 S MARKET ST,,SAN JOSE,CALIFORNIA,95113,US,PACIFIC TIME,-8,37.334141,-121.891647,
SNJTCAPU,sjo7,SanJose7,1741 TECHNOLOGY DR,,SAN JOSE,CALIFORNIA,95110,US,PACIFIC TIME,-8,37.367229,-121.919884,
HYWRCAMT,oak2,Oakland2,23965 CONNECTICUT ST,,HAYWARD,CALIFORNIA,94545,US,PACIFIC TIME,-8,37.63847,-122.129951,
MPLSMNCD,min2,Minneapolis2,511 11TH AVE S,,MINNEAPOLIS,MINNESOTA,55415,US,CENTRAL TIME,-6,44.97139,-93.254707,
MPLSMNPJ,min3,Minneapolis3,222 S 9TH ST,,MINNEAPOLIS,MINNESOTA,55402,US,CENTRAL TIME,-6,44.973709,-93.270012,
HRNDVAHY,wdc12,Washington12,520 VAN BUREN ST,,HERNDON,VIRGINIA,20170,US,EASTERN TIME,-5,38.964951,-77.38298,
WASHDC29,wdc13,Washington13,1220 L ST NW,,WASHINGTON,DISTRICT OF COLUMBIA,20005,US,EASTERN TIME,-5,38.903381,-77.029129,
VINNVA05,wdc14,Washington14,7990 SCIENCE APPLICATIONS CT,,VIENNA,VIRGINIA,22182,US,EASTERN TIME,-5,38.908649,-77.21991,
WASHDCRK,wdc15,Washington15,1120 VERMONT AVE NW,,WASHINGTON,DISTRICT OF COLUMBIA,20005,US,EASTERN TIME,-5,38.904819,-77.033005,
CLMAMDCG,bal3,Baltimore3,7151 COLUMBIA GATEWAY DR,,COLUMBIA,MARYLAND,21046,US,EST,-5,39.179508,-76.8069,
IRVNCAKY,tus2,Tustin2,18300 VON KARMAN AVE,,IRVINE,CALIFORNIA,92612,US,PACIFIC TIME,-8,33.676998,-117.85096,
SNDGCAJW,sdg2,SanDiego2,9725 SCRANTON RD,SAN DIEGO TECH CENTER,SAN DIEGO,CALIFORNIA,92121,US,PACIFIC TIME,-8,32.897167,-117.202782,
SNDICAXP,sdg3,SanDiego3,8923 COMPLEX DR,LEVEL3 (OLD WILLIAMS),SAN DIEGO,CALIFORNIA,92123,US,PACIFIC TIME,-8,32.830021,-117.135208,
SCCSNJ69,nwr2,Newark2,275 HARTZ WAY,,SECAUCUS,NEW JERSEY,7094,US,EASTERN TIME,-5,40.777351,-74.075668,
EDSNNJTH,nwr3,Newark3,333 THORNALL ST,,EDISON,NEW JERSEY,8837,US,EASTERN TIME,-5,40.560188,-74.334641,
NYCMNYPW,nyc12,NewYork12,1 PENN PLZ,,NEW YORK,NEW YORK,10119,US,EASTERN TIME,-5,40.751736,-73.992455,
BLTSMDDU,bal4,Baltimore4,202 N CHARLES ST,,BALTIMORE,MARYLAND,21201,US,EST,-5,39.291023,-76.615204,
KSCBMOVS,kac2,KansasCity2,1212 E 19TH ST,,KANSAS CITY,MISSOURI,64108,US,CENTRAL TIME,-6,39.090481,-94.568268,
KSCYMOAV,kac3,KansasCity3,1102 GRAND BLVD,,KANSAS CITY,MISSOURI,64106,US,CENTRAL TIME,-6,39.100815,-94.580887,
TOLEOH11,tol1,Toledo1,6285 AMERICAN RD,,TOLEDO,OHIO,43612,US,EASTERN TIME,-5,41.729836,-83.519852,
AKRNOHAT,akn4,Akron4,520 S MAIN ST,BUILDING 24,AKRON,OHIO,44311,US,EASTERN TIME,-5,41.072239,-81.525101,
DYTNOHVY,day1,Dayton1,512 N MIAMI AVE,,DAYTON,OHIO,45449,US,EASTERN TIME,-5,39.674507,-84.25975,
DYTNOHIB,day2,Dayton2,130 W 2ND ST,,DAYTON,OHIO,45402,US,EASTERN TIME,-5,39.760132,-84.194778,
GAHGOH01,cle5,Cleveland5,15467 NEO PKWY,,CLEVELAND,OHIO,44128,US,EASTERN TIME,-5,41.430408,-81.573158,
HDTPOH01,cle6,Cleveland6,1290 E HINES HILL RD,,HUDSON,OHIO,44236,US,EASTERN TIME,-5,41.255779,-81.466721,
BOISID96,boi1,Boise1,435 W MCGREGOR DR,,BOISE,IDAHO,83705,US,PACIFIC TIME,-8,43.566277,-116.184319,
BOIUIDJA,boi2,Boise2,426 S 10TH ST,,BOISE,IDAHO,83702,US,MOUNTAIN TIME,-7,43.61338,-116.208618,
FTPRFLFC,psl1,PortStLucie1,353 FLORIDA AVE,,FORT PIERCE,FLORIDA,34950,US,EASTERN TIME,-5,27.440639,-80.325439,
MLBRFL07,mlb1,Melbourne1,1108 LINE ST,,MELBOURNE,FLORIDA,32901,US,EASTERN TIME,-5,28.071432,-80.602585,
TAMRFLPI,tmp6,Tampa6,1700 N 25TH ST,,TAMPA,FLORIDA,33605,US,EASTERN TIME,-5,27.95974,-82.431343,
MDLYFLCX,mia8,Miami8,10280 NW SOUTH RIVER DR,,MEDLEY,FLORIDA,33178,US,EASTERN TIME,-5,25.867409,-80.341667,
WPBIFLNG,fll2,FtLauderdale2,515 HAMPTON RD,,WEST PALM BEACH,FLORIDA,33405,US,EASTERN TIME,-5,26.684179,-80.05645,
MPTPKSAE,wch2,Wichita2,1551 13TH AVE,,MCPHERSON,KANSAS,67460,US,CENTRAL TIME,-6,38.398663,-97.6856,
SHNDILCI,chi11,Chicago11,200 E 166TH ST,,SOUTH HOLLAND,ILLINOIS,60473,US,CENTRAL TIME,-6,41.594269,-87.611374,
FTWPTXWC,ftw3,FortWorth3,1101 E 9TH ST,,FORT WORTH,TEXAS,76102,US,CENTRAL TIME,-6,32.755501,-97.321609,
HSTNTXTZ,hou6,Houston6,293 N MAIN ST,,HOUSTON,TEXAS,77002,US,CENTRAL TIME,-6,29.768473,-95.358467,
CLPKGAEU,atl9,Atlanta9,4311 BEST RD,,COLLEGE PARK,GEORGIA,30337,US,EASTERN TIME,-5,33.63784,-84.458633,
OCALFLRA,ocf1,Ocala1,30121 SW 59TH ST,,OCALA,FLORIDA,34474,US,EASTERN TIME,-5,29.128395,-82.221733,
LKWLFL04,lkw1,LakeWales1,212 ALTURAS-BABSON CUTOFF RD,,LAKE WALES,FLORIDA,33853,US,EASTERN TIME,-5,27.84771,-81.58828,
TPKAKSLB,top1,Topeka1,501 SE ADAMS ST,,TOPEKA,KANSAS,66607,US,CENTRAL TIME,-6,39.051163,-95.666168,
SMNTTXAG,hou7,Houston7,35612 FM 1093 RD,,SIMONTON,TEXAS,77485,US,CENTRAL TIME,-6,29.679806,-95.979568,
MACNGATP,mcn1,Macon1,8721 THOMASTON RD,,MACON,GEORGIA,31220,US,EASTERN TIME,-5,32.865028,-83.854782,
ALBYGALG,aby1,AlbanyGA1,1208 EVELYN AVE,,ALBANY,GEORGIA,31705,US,EASTERN TIME,-5,31.59617,-84.124718,
MDVITX04,mdv1,Madisonville1,4641 I-45 S,,MADISONVILLE,TEXAS,77864,US,CENTRAL TIME,-6,30.929976,-95.82473,
SFLDMIMK,det7,Detroit7,23800 W 10 MILE RD,,SOUTHFIELD,MICHIGAN,48033,US,EASTERN TIME,-5,42.4729,-83.277512,
HSTNTXYA,hou8,Houston8,5959 CORPORATE DR,,HOUSTON,TEXAS,77036,US,CENTRAL TIME,-6,29.713591,-95.550171,
BTRHLADG,btr4,BatonRouge4,6300 CORPORATE BLVD,,BATON ROUGE,LOUISIANA,70809,US,CENTRAL TIME,-6,30.42392,-91.124611,
SNQLWAAM,sea7,Seattle7,34931 SE DOUGLAS ST,T-MOBILE NOC,SNOQUALMIE,WASHINGTON,98065,US,PACIFIC TIME,-8,47.526421,-121.873978,
BOTHWAAK,sea8,Seattle8,19807 N CREEK PKWY,,BOTHELL,WASHINGTON,98011,US,PACIFIC TIME,-8,47.772491,-122.188263,
WSCRCAKE,sac3,Sacramento3,840 RIVERSIDE PKWY,,WEST SACRAMENTO,CALIFORNIA,95605,US,PACIFIC TIME,-8,38.590351,-121.565353,
CNCRCALZ,oak3,Oakland3,2380 BISSO LN,,CONCORD,CALIFORNIA,94520,US,PACIFIC TIME,-8,37.98373,-122.045242,
OKLDCAMP,oak4,Oakland4,1330 BROADWAY,,OAKLAND,CALIFORNIA,94612,US,PACIFIC TIME,-8,37.803902,-122.270798,
OKLECAZV,oak5,Oakland5,720 2ND ST,,OAKLAND,CALIFORNIA,94607,US,PACIFIC TIME,-8,37.79903,-122.282822,
SCRNCANK,sac4,Sacramento4,1005 N B ST,,SACRAMENTO,CALIFORNIA,95811,US,PACIFIC TIME,-8,38.591431,-121.487823,
VNTRCAGI,vta1,Ventura1,1667 WALTER ST,,VENTURA,CALIFORNIA,93003,US,PACIFIC TIME,-8,34.25761,-119.240089,
SIMICAPH,lax11,LosAngeles11,4585 RUNWAY ST,,SIMI VALLEY,CALIFORNIA,93063,US,PACIFIC TIME,-8,34.270359,-118.704483,
BRBNCAOB,lax12,LosAngeles12,4525 W VALERIO ST,,BURBANK,CALIFORNIA,91505,US,PACIFIC TIME,-8,34.205219,-118.361565,
TRNECAGB,lax13,LosAngeles13,1855 WESTERN WAY,,TORRANCE,CALIFORNIA,90501,US,PACIFIC TIME,-8,33.850449,-118.312889,
IRVECA62,tus3,Tustin3,2008 MCGAW AVE,,IRVINE,CALIFORNIA,92614,US,PACIFIC TIME,-8,33.692333,-117.844406,
SNDGCADV,sdg4,SanDiego4,9850 DISTRIBUTION AVE,T-MOBILE ONLY,SAN DIEGO,CALIFORNIA,92121,US,PACIFIC TIME,-8,32.886971,-117.164268,
ESCNCAKY,esc2,Escondido2,1441 MONTIEL RD,,ESCONDIDO,CALIFORNIA,92026,US,PACIFIC TIME,-8,33.129189,-117.11232,
ESCNCAHI,esc1,Escondido1,25480 N CENTRE CITY PKWY,,ESCONDIDO,CALIFORNIA,92026,US,PACIFIC TIME,-8,33.173649,-117.110413,
RVSDCAYA,rsd1,Riverside1,1550 MARLBOROUGH AVE,,RIVERSIDE,CALIFORNIA,92507,US,PACIFIC TIME,-8,33.996971,-117.345673,
SNBRCATC,sbo1,SanBernadino1,5705 N INDUSTRIAL PKWY,,SAN BERNARDINO,CALIFORNIA,92407,US,PACIFIC TIME,-8,34.1852,-117.358627,
FRSMCA15,frs1,Fresno1,305 W NAPA AVE,,FRESNO,CALIFORNIA,93706,US,PACIFIC TIME,-8,36.747452,-119.815292,
FRSOCAYM,frs2,Fresno2,5525 N GOLDEN STATE BLVD,,FRESNO,CALIFORNIA,93722,US,PACIFIC TIME,-8,36.816158,-119.889603,
MRCDCAIJ,fer1,Fergus1,2236 FRANKLIN RD,,MERCED,CALIFORNIA,95341,US,PACIFIC TIME,-8,37.319706,-120.541008,
MDSTCAQZ,mod1,Modesto1,1224 13TH ST,,MODESTO,CALIFORNIA,95354,US,PACIFIC TIME,-8,37.644867,-121.000046,
PPLNNEBN,oma3,Omaha3,1413 S WASHINGTON ST,,PAPILLION,NEBRASKA,68046,US,CENTRAL TIME,-6,41.138039,-96.042198,
HSTDTXBG,hou9,Houston9,4660 N SAM HOUSTON PKWY E,,HOUSTON,TEXAS,77032,US,CENTRAL TIME,-6,29.938257,-95.320244,
AUSZTXSC,aus6,Austin6,4401 FREIDRICH LN,BUILDING 2,AUSTIN,TEXAS,78744,US,CENTRAL TIME,-6,30.21011,-97.749359,
FRSDTXAR,dal11,Dallas11,7668 WARREN PKWY,,FRISCO,TEXAS,75034,US,CENTRAL TIME,-6,33.108299,-96.818085,
DLLTTX01,dal12,Dallas12,11830 WEBB CHAPEL RD,BUILDING 5000,DALLAS,TEXAS,75234,US,CENTRAL TIME,-6,32.911488,-96.870628,
NSVNTNJY,nvl2,Nashville2,2208 9TH AVE N,,NASHVILLE,TENNESSEE,37208,US,CENTRAL TIME,-6,36.188759,-86.803543,
NSVMTNKH,nvl3,Nashville3,3800 EZELL RD,,NASHVILLE,TENNESSEE,37211,US,CENTRAL TIME,-6,36.071812,-86.692902,
BRHOALOH,bir1,Birmingham1,401 6TH ST S,LEVEL 3 POP,BIRMINGHAM,ALABAMA,35233,US,CENTRAL TIME,-6,33.499809,-86.82122,
BRHMALHR,bir2,Birmingham2,950 22ND ST N,,BIRMINGHAM,ALABAMA,35203,US,CENTRAL TIME,-6,33.52486,-86.809082,
TAMQFLFZ,tmp7,Tampa7,6902 CYPRESS PARK DR,,TAMPA,FLORIDA,33634,US,EASTERN TIME,-5,28.011499,-82.539101,
MRMRFL09,mia9,Miami9,9954 PREMIER PKWY,,MIRAMAR,FLORIDA,33025,US,EASTERN TIME,-5,25.974106,-80.276115,
JCVMFLMN,jax7,Jacksonville7,7025 A C SKINNER PKWY,,JACKSONVILLE,FLORIDA,32256,US,EASTERN TIME,-5,30.249603,-81.576027,
SNSPGACP,atl10,Atlanta10,4 CONCOURSE PKWY,,SANDY SPRINGS,GEORGIA,30328,US,EASTERN TIME,-5,33.916855,-84.353233,
INDPOHEB,cle7,Cleveland7,6200 OAK TREE BLVD,,INDEPENDENCE,OHIO,44131,US,EASTERN TIME,-5,41.393349,-81.661751,
AKRNOHIA,cle8,Cleveland8,1 CASCADE PLZ,,AKRON,OHIO,44308,US,EASTERN TIME,-5,41.082161,-81.519608,
PITBPAWY,pit2,Pittsburgh2,6437 DAHLEM WAY,,PITTSBURGH,PENNSYLVANIA,15206,US,EASTERN TIME,-5,40.460361,-79.915535,
WNRTPAAH,phi6,Philadelphia6,30 S MONTGOMERY AVE,,NORRISTOWN,PENNSYLVANIA,19403,US,EASTERN TIME,-5,40.122459,-75.365845,
PRNYNJ87,nwr4,Newark4,4 SYLVAN WAY,,PARSIPPANY,NEW JERSEY,7054,US,EASTERN TIME,-5,40.848419,-74.44883,
BOHENY02,nyc13,NewYork13,21 KEYLAND CT,,BOHEMIA,NEW YORK,11716,US,EASTERN TIME,-5,40.777199,-73.096352,
BLFDCTAP,hfd2,Hartford2,100 FILLEY ST,,BLOOMFIELD,CONNECTICUT,6002,US,EASTERN TIME,-5,41.851849,-72.715591,
PRVDRINW,prv1,Providence1,235 PROMENADE ST,,PROVIDENCE,RHODE ISLAND,2908,US,EASTERN TIME,-5,41.82856,-71.419662,
EPRVRICJ,prv2,Providence2,50 VISION BLVD,,EAST PROVIDENCE,RHODE ISLAND,2914,US,EASTERN TIME,-5,41.802505,-71.34269,
PRVERIWQ,prv3,Providence3,375 PROMENADE ST,,PROVIDENCE,RHODE ISLAND,2908,US,EASTERN TIME,-5,41.82938,-71.423744,
NRTNMAAA,bos4,Boston4,10 COMMERCE WAY,,NORTON,MASSACHUSETTS,2766,US,EASTERN TIME,-5,41.960262,-71.134926,
ELMNCAFI,lax14,LosAngeles14,10171 RUSH ST,,EL MONTE,CALIFORNIA,91733,US,PACIFIC TIME,-8,34.052368,-118.047607,
LSVGNV15,lvg2,LasVegas2,4275 E SAHARA AVE,,LAS VEGAS,NEVADA,89104,US,PACIFIC TIME,-8,36.144234,-115.081589,
LSVONVIO,lvg3,LasVegas3,4485 E SAHARA AVE,SWITCHNAP 3,LAS VEGAS,NEVADA,89104,US,PACIFIC TIME,-8,36.142796,-115.07737,
NLVGNV19,lvg4,LasVegas4,3040 SIMMONS ST,,N LAS VEGAS,NEVADA,89032,US,PACIFIC TIME,-8,36.214695,-115.178658,
SLKDUTFJ,slc4,SaltLakeCity4,1497 S 700 W,,SALT LAKE CITY,UTAH,84104,US,MOUNTAIN TIME,-7,40.736542,-111.910629,
ELGNILOT,chi12,Chicago12,2455 ALFT LN,,ELGIN,ILLINOIS,60124,US,CENTRAL TIME,-6,42.074711,-88.34034,
CHCGILMF,chi13,Chicago13,8550 W BRYN MAWR AVE,,CHICAGO,ILLINOIS,60631,US,CENTRAL TIME,-6,41.981831,-87.840553,
EAGNMNZO,min4,Minneapolis4,3070 LUNAR LN,,EAGAN,MINNESOTA,55121,US,CENTRAL TIME,-6,44.845501,-93.13208,
IPLUINOI,ind2,Indianapolis2,720 KENTUCKY AVE,IXC POP,INDIANAPOLIS,INDIANA,46225,US,EASTERN TIME,-5,39.758808,-86.171623,
IPLUINWX,ind3,Indianapolis3,6215 MORENCI TRL,,INDIANAPOLIS,INDIANA,46268,US,EASTERN TIME,-5,39.868469,-86.236809,
KSCZMOVR,kac4,KansasCity4,2709 CHERRY ST,,KANSAS CITY,MISSOURI,64108,US,CENTRAL TIME,-6,39.07753,-94.577034,
STLVMOOH,stl5,StLouis5,2004 WESTPORT CENTER DR,,SAINT LOUIS,MISSOURI,63146,US,CENTRAL TIME,-6,38.693405,-90.421753,
DNVRCOII,den5,Denver5,2323 DELGANY ST,,DENVER,COLORADO,80216,US,MOUNTAIN TIME,-7,39.760647,-104.991653,
KSCAMOYS,kac5,KansasCity5,1104 VIRGINIA AVE,,KANSAS CITY,MISSOURI,64106,US,CENTRAL TIME,-6,39.100445,-94.566246,
DRNDMIBF,fnt1,Flint1,302 ANN ARBOR ST,,DURAND,MICHIGAN,48429,US,EASTERN TIME,-5,42.909107,-83.980873,
JCSNMIMH,lsg2,Lansing2,195 BROOKLEY AVE,,JACKSON,MICHIGAN,49202,US,EASTERN TIME,-5,42.270588,-84.402763,
TOLEOH01,tol2,Toledo2,867 CAPITAL COMMONS DR,,TOLEDO,OHIO,43615,US,EASTERN TIME,-5,41.624493,-83.671844,
JRCYNJ65,nwr5,Newark5,1 EVERTRUST PLZ,ONE EVERTRUST PLAZA,JERSEY CITY,NEW JERSEY,7302,US,EASTERN TIME,-5,40.718479,-74.037888,
CLEVOHDR,cle9,Cleveland9,1228 EUCLID AVE,,CLEVELAND,OHIO,44115,US,EASTERN TIME,-5,41.500309,-81.683792,
OKTRILBN,chi14,Chicago14,17W705 BUTTERFIELD RD,,OAKBROOK TERRACE,ILLINOIS,60181,US,CENTRAL TIME,-6,41.849564,-87.976013,
RCMTNCXA,ral3,Raleigh3,143 N WASHINGTON ST,,ROCKY MOUNT,NORTH CAROLINA,27801,US,EASTERN TIME,-5,35.943001,-77.794212,
OCALFLXA,ocf2,Ocala2,319 SE BROADWAY ST,,OCALA,FLORIDA,34471,US,EASTERN TIME,-5,29.18648,-82.13398,
PITEPADT,pit1,Pittsburgh1,143 S 25TH ST,,PITTSBURGH,PENNSYLVANIA,15203,US,EASTERN TIME,-5,40.42561,-79.970825,
BLVRPA02,pit4,Pittsburgh4,200 1ST ST,,BOLIVAR,PENNSYLVANIA,15923,US,EASTERN TIME,-5,40.392227,-79.153305,
FTWQTXXT,ftw1,FortWorth1,1601 JONES ST,FORT WORTH LEVEL(3) POP,FORT WORTH,TEXAS,76102,US,CENTRAL TIME,-6,32.748661,-97.324127,
ALNAPAGD,alt1,Altoona1,1905 W CHESTNUT AVE,,ALTOONA,PENNSYLVANIA,16601,US,EASTERN TIME,-5,40.509739,-78.407822,
NTNHPAAA,nth1,NewtonHamilton1,120 KINSLOE AVE,,NEWTON HAMILTON,PENNSYLVANIA,17066,US,EASTERN TIME,-5,40.391674,-77.840752,
PTRYPAAA,mif1,Mifflintown1,752 STATE HWY 333,,WALKER,PENNSYLVANIA,17059,US,EASTERN TIME,-5,40.599049,-77.486443,
RDNGPAEO,rdg1,ReadingPA1,MORGANTOWN RD,,READING,PENNSYLVANIA,19601,US,EASTERN TIME,-5,40.319771,-75.92617,
PSWYNJ69,nwr6,Newark6,225 OLD NEW BRUNSWICK RD,,PISCATAWAY,NEW JERSEY,8854,US,EASTERN TIME,-5,40.555099,-74.472664,
DNVTCOOM,den6,Denver6,4949 S SYRACUSE ST,,DENVER,COLORADO,80237,US,MOUNTAIN TIME,-7,39.625931,-104.899895,
TWDLTXOW,hou10,Houston10,4000 TECHNOLOGY FOREST BLVD,,THE WOODLANDS,TEXAS,77381,US,CENTRAL TIME,-6,30.179646,-95.484665,
NWORLASD,nor2,NewOrleans2,1515 POYDRAS ST,,NEW ORLEANS,LOUISIANA,70112,US,CENTRAL TIME,-6,29.95257,-90.078468,
RCMEVAXN,rch2,Richmond2,3909 CAROLINA AVE,,RICHMOND,VIRGINIA,23222,US,EASTERN TIME,-5,37.584381,-77.413231,
NYCMNYAV,nyc14,NewYork14,1185 6TH AVE,,NEW YORK,NEW YORK,10036,US,EASTERN TIME,-5,40.757912,-73.982498,
SMFSCTND,stm2,Stamford2,232 HARBOR DR,,STAMFORD,CONNECTICUT,6902,US,EASTERN TIME,-5,41.03524,-73.532379,
SMFRCTEJ,stm3,Stamford3,250 HARBOR DR,,STAMFORD,CONNECTICUT,6902,US,EASTERN TIME,-5,41.034897,-73.53318,
MTLRNJFW,phi7,Philadelphia7,4000 LEADENHALL RD,,MOUNT LAUREL,NEW JERSEY,8054,US,EASTERN TIME,-5,39.960377,-74.89994,
SYRCNYNH,syr3,Syracuse3,6007 FAIR LAKES RD,,EAST SYRACUSE,NEW YORK,13057,US,EASTERN TIME,-5,43.093102,-76.070328,
SPBGFLBH,stp2,StPetersburg2,100 2ND AVE S,TOWER SOUTH TOWER,ST PETERSBURG,FLORIDA,33701,US,EASTERN TIME,-5,27.768999,-82.63475,
RLGINCZG,ral4,Raleigh4,1918 WAKE FOREST RD,,RALEIGH,NORTH CAROLINA,27608,US,EASTERN TIME,-5,35.805889,-78.624252,
LBNNPAAF,phi8,Philadelphia8,833 CHESTNUT ST,,LEBANON,PENNSYLVANIA,17042,US,EASTERN TIME,-5,40.337933,-76.425446,
LSANCA01,lax15,LosAngeles15,433 S OLIVE ST,,LOS ANGELES,CALIFORNIA,90013,US,PACIFIC TIME,-8,34.050331,-118.252548,
RCKLCAIG,sac5,Sacramento5,125 CYBER CT,,ROCKLIN,CALIFORNIA,95765,US,PACIFIC TIME,-8,38.822979,-121.306213,
LTRKARDR,lit2,LittleRock2,300 S GAINES ST,,LITTLE ROCK,ARKANSAS,72201,US,CENTRAL TIME,-6,34.746899,-92.278122,
ARKDARBY,ark1,Arkadelphia1,712 POST OAK RD,,ARKADELPHIA,ARKANSAS,71923,US,CENTRAL TIME,-6,34.223949,-93.01963,
FRDRMDOJ,fdk1,Frederick1,315 BALLENGER CENTER DR,,FREDERICK,MARYLAND,21703,US,EASTERN TIME,-5,39.395882,-77.43586,
HNCCMDAK,hck1,Hancock1,7257 MILLSTONE RD,,HANCOCK,MARYLAND,21750,US,EASTERN TIME,-5,39.688976,-78.121422,
CMLDMDDM,cbe1,Cumberland1,700 KELLY RD,,CUMBERLAND,MARYLAND,21502,US,EASTERN TIME,-5,39.645798,-78.777489,
WGNSCO01,wcy1,WeldCounty1,13228 CORD 95,,WIGGINS,COLORADO,80654,US,MOUNTAIN TIME,-7,40.145557,-104.178337,
WACOGAAC,tlp1,Tallapoosa1,388 KING ST,,BREMEN,GEORGIA,30110,US,EASTERN TIME,-5,33.696171,-85.199249,
HANNWY01,med1,MedicineBow1,5.2M W/O STRD 487 ON US HWY 30,,HANNA,WYOMING,82327,US,MOUNTAIN TIME,-7,41.744431,-106.833275,
PTVLCO03,plv1,Platteville1,12616 COUNTY ROAD 28,,PLATTEVILLE,COLORADO,80651,US,MOUNTAIN TIME,-7,40.18829,-104.818405,
SNARCAAH,sao1,SanArdo1,61921 CATTLEMEN RD,,SAN ARDO,CALIFORNIA,93450,US,PACIFIC TIME,-8,36.040943,-120.914703,
SNLOCAMO,sbp1,SanLuisObispo1,775 CAPITOLIO WAY,,SAN LUIS OBISPO,CALIFORNIA,93401,US,PACIFIC TIME,-8,35.256886,-120.645172,
LNCLNE20,lnk1,Lincoln1,1001 W O ST,,LINCOLN,NEBRASKA,68528,US,CENTRAL TIME,-6,40.812344,-96.737297,
CRPNINCS,cnp1,CrownPoint1,12918 GRANT ST,,CROWN POINT,INDIANA,46307,US,CENTRAL TIME,-6,41.383278,-87.354774,
CLMDOHOE,clb4,Columbus4,580 N 4TH ST,,COLUMBUS,OHIO,43215,US,EASTERN TIME,-5,39.974651,-82.997421,
LSVMKYCY,lou2,Louisville2,962 S 3RD ST,,LOUISVILLE,KENTUCKY,40203,US,EASTERN TIME,-5,38.239399,-85.758301,
HRFRCT23,hfd3,Hartford3,300 WINDSOR ST,,HARTFORD,CONNECTICUT,6120,US,EASTERN TIME,-5,41.773479,-72.671753,
MNCHNHNI,mch1,Manchester1,1 SUNDIAL AVE,,MANCHESTER,NEW HAMPSHIRE,3103,US,EASTERN TIME,-5,42.973278,-71.468361,
LCHNPQEQ,mon1,Montreal1,4825 FRANCOIS-CUSSON RUE,,LACHINE,QUEBEC,H8T 3P6,CA,EASTERN TIME,-5,45.457069,-73.715111,
OTWBONFB,otw1,Ottawa1,525 TERMINAL AVE,,OTTAWA,ONTARIO,K1G 0Z2,CA,EASTERN TIME,-5,45.41552,-75.647362,
PTLGORIA,por1,Portland1,1335 NW NORTHRUP ST,,PORTLAND,OREGON,97209,US,PST,-8,45.531876,-122.684021,
SRFRTX01,str1,Stratford1,501 W TEXAS ST,,STRATFORD,TEXAS,79084,US,CENTRAL TIME,-6,36.329178,-102.077995,
WLMGDEOJ,wmg1,Wilmington1,1603 JESSUP ST,,WILMINGTON,DELAWARE,19802,US,EASTERN TIME,-5,39.749531,-75.538757,
BRYNTX05,bry1,Bryan1,124 E 26TH ST,,BRYAN,TEXAS,77803,US,CENTRAL TIME,-6,30.673899,-96.372124,
SNVACANX,sjo8,SanJose8,411 N PASTORIA AVE,,SUNNYVALE,CALIFORNIA,94085,US,PACIFIC TIME,-8,37.38871,-122.035789,
SNTCCACS,sjo9,SanJose9,1503 ARBUCKLE CT,,SANTA CLARA,CALIFORNIA,95054,US,PACIFIC TIME,-8,37.377972,-121.955734,
SNTSNMAN,snt1,SantaTeresa1,175 HARRIER DR,,SANTA TERESA,NEW MEXICO,88008,US,MOUNTAIN TIME,-7,31.866631,-106.698112,
SNFCCASN,sfo4,SanFrancisco4,50 FREMONT ST,,SAN FRANCISCO,CALIFORNIA,94105,US,PACIFIC TIME,-8,37.79052,-122.397194,
CHSKVAAY,cpk1,Chesapeake1,811 INDUSTRIAL AVE,,CHESAPEAKE,VIRGINIA,23324,US,EASTERN TIME,-5,36.82563,-76.273651,
DESMIAVI,dem1,DesMoines1,101 SE 7TH ST,,DES MOINES,IOWA,50309,US,CENTRAL TIME,-6,41.586361,-93.6063,
DRHMNCRR,drh1,Durham1,3632 N ROXBORO ST,,DURHAM,NORTH CAROLINA,27704,US,EASTERN TIME,-5,36.038288,-78.896782,
MILAWIIR,mlw1,Milwaukee1,500 S WATER ST,QWEST POP,MILWAUKEE,WISCONSIN,53204,US,CENTRAL TIME,-6,43.026501,-87.905205,
BCKYAZ02,agu1,AguaCaliente1,20402 S 419TH AVE,,BUCKEYE,ARIZONA,85326,US,MOUNTAIN TIME,-7,33.36974,-112.584602,
AKRNOH81,akn1,Akron1,110 S ARLINGTON ST,,AKRON,OHIO,44306,US,EASTERN TIME,-5,41.06937,-81.491241,
ALBYNYVP,alb1,Albany1,316 N PEARL ST,,ALBANY,NEW YORK,12207,US,EASTERN TIME,-5,42.66156,-73.747452,
ALBYNYPS,alb2,Albany2,11 N PEARL ST,CARRIER HOTEL,ALBANY,NEW YORK,12207,US,EASTERN TIME,-5,42.650021,-73.752083,
CNCRMIAB,abn1,Albion1,14267 HUTCHISON RD,,ALBION,MICHIGAN,49224,US,EASTERN TIME,-5,42.232212,-84.662277,
AMRLTX21,amr1,Amarillo1,1401 SE 3RD S,,AMARILLO,TEXAS,79108,US,CENTRAL TIME,-6,35.208946,-101.819366,
CRZZNMAC,aco1,Ancho1,USHWY 54 & STHWY 14,,CARRIZOZO,NEW MEXICO,88301,US,MOUNTAIN TIME,-7,33.683075,-105.85244,
CLDNTXAI,ash1,Ashtola1,11451 CORD LL,,CLARENDON,TEXAS,79226,US,CENTRAL TIME,-6,34.988583,-101.005188,
AUBNMAEJ,aub1,Auburn1,199 WASHINGTON ST,,AUBURN,MASSACHUSETTS,1501,US,EASTERN TIME,-5,42.20396,-71.813667,
BKFECAEP,bfl1,Bakersfield1,7731 DIMILLER DR,,BAKERSFIELD,CALIFORNIA,93307,US,PACIFIC TIME,-8,35.34753,-118.91716,
BYBHFLGH,bnk1,Bannock1,10015 US HIGHWAY 441,,BOYNTON BEACH,FLORIDA,33473,US,EASTERN TIME,-5,26.526709,-80.207077,
BRSWCADJ,bsw1,Barstow1,29811 BRAHMA RD,,BARSTOW,CALIFORNIA,92311,US,PACIFIC TIME,-8,34.893852,-117.023888,
BTRGLA71,btr1,BatonRouge1,9826 BURBANK DR,,BATON ROUGE,LOUISIANA,70810,US,CENTRAL TIME,-6,30.357071,-91.118553,
BKTWNYAF,bec1,Beekmantown1,475 ASHLEY RD,,BEEKMANTOWN,NEW YORK,12901,US,EASTERN TIME,-5,44.79084,-73.478455,
BLPTNYAL,blp1,Bellport1,957 STATION RD,,BELLPORT,NEW YORK,11713,US,EASTERN TIME,-5,40.790665,-72.94799,
BISCARAB,bsc1,Biscoe1,.38M W/O CORD 22 @E I-40,,BISCOE,ARKANSAS,72017,US,CENTRAL TIME,-6,34.835629,-91.538605,
BLTNIL06,blm1,Bloomington1,3206 STRINGTOWN,,BLOOMINGTON,ILLINOIS,61704,US,CENTRAL TIME,-6,40.484093,-88.947556,
BGRTGABE,bog1,Bogart1,206 BEAR CREEK LN,,BOGART,GEORGIA,30622,US,EASTERN TIME,-5,33.979721,-83.534805,
BRDGID01,bdg1,Bridge1,2775 S 2400 E,,BRIDGE,IDAHO,83342,US,MOUNTAIN TIME,-7,42.130802,-113.324081,
BRWRCTAA,bri1,Bridgewater1,- RT 67 NEW MILFORD RD & EBOW BROOK RD,,BRIDGEWATER,CONNECTICUT,6752,US,EASTERN TIME,-5,41.990379,-70.975044,
BRFDCODA,brm1,Broomfield1,1025 ELDORADO BLVD,BUILDING 1000,BROOMFIELD,COLORADO,80021,US,MOUNTAIN TIME,-7,39.920601,-105.144272,
BRNYCAAK,bur1,Burney1,37576 STATE HIGHWAY 299 E,,BURNEY,CALIFORNIA,96013,US,PACIFIC TIME,-8,40.897453,-121.646004,
CAMPCO01,cpo1,Campo1,30994 COUNTY ROAD C,,CAMPO,COLORADO,81029,US,MOUNTAIN TIME,-7,37.018185,-102.519402,
CHLDTXBD,cry1,Carey1,7301 LOOP 328,,CHILDRESS,TEXAS,79201,US,CENTRAL TIME,-6,34.48114,-100.335831,
FTBRWY01,crt1,Carter1,334 FRONT ST,,FORT BRIDGER,WYOMING,82933,US,MOUNTAIN TIME,-7,41.265404,-110.411797,
CNVWMO01,cvw1,Centerview1,160 SW 701ST RD,,CENTERVIEW,MISSOURI,64019,US,CENTRAL TIME,-6,38.742641,-93.879158,
WHWKONAA,chm1,Champlain1,5801 ABBOTT ST,,WEST HAWKESBURY,ONTARIO,K6A 2E1,CA,EASTERN TIME,-5,45.607021,-74.589394,
BKVLFLEQ,cha1,Chassahowitzka1,16190 COMMERCIAL WAY,,BROOKSVILLE,FLORIDA,34614,US,EASTERN TIME,-5,28.665144,-82.551468,
CHMLOR01,cmt1,Chemult1,109110 HWY 97 N,,CHEMULT,OREGON,97731,US,PACIFIC TIME,-8,43.213139,-121.782379,
GLCSRIAT,che1,Chepachet1,732 PUTNAM PIKE,,CHEPACHET,RHODE ISLAND,2814,US,EASTERN TIME,-5,41.904404,-71.637276,
CHCPMAGQ,chc1,Chicopee1,414 SHERIDAN ST,,CHICOPEE,MASSACHUSETTS,1020,US,EASTERN TIME,-5,42.169991,-72.572159,
CFLDFLAK,chf1,Chiefland1,6831 NW 115TH ST,,CHIEFLAND,FLORIDA,32626,US,EASTERN TIME,-5,29.500128,-82.88343,
CLVLFLAA,cla1,Clarksville1,14549 SHWY 20,,CLARKSVILLE,FLORIDA,32421,US,CENTRAL TIME,-6,30.569426,-85.129318,
CLELWAAO,cem1,CleElum1,4110 LOWER PEOH POINT RD,,CLE ELUM,WASHINGTON,98922,US,PACIFIC TIME,-8,47.175571,-120.895592,
CLBNOHAP,col1,Columbiana1,2151 CREEK RD,,COLUMBIANA,OHIO,44408,US,EASTERN TIME,-5,40.869282,-80.63694,
COLSCA03,cls1,Colusa1,210 10TH ST,,COLUSA,CALIFORNIA,95932,US,PACIFIC TIME,-8,39.215401,-122.015251,
CRNGCABC,crn1,Corning1,702 2ND ST,,CORNING,CALIFORNIA,96021,US,PACIFIC TIME,-8,39.928757,-122.178108,
CORNCAJW,cna1,Corona1,13599 TEMESCAL CANYON RD,,CORONA,CALIFORNIA,92883,US,PACIFIC TIME,-8,33.738461,-117.423904,
CRSCTX02,cor1,Corsicana1,2930 FISH TANK RD,LEVEL 3 REGEN SITE FOR DASH,CORSICANA,TEXAS,75110,US,CENTRAL TIME,-6,32.112965,-96.489006,
ALAMNVAA,cys1,CoyoteSprings1,39 GARNET JCT,,ALAMO,NEVADA,89001,US,PACIFIC TIME,-8,37.364304,-115.165863,
CRVWFLAY,cst1,Crestview1,3500 HIGHWAY 90 E,,CRESTVIEW,FLORIDA,32539,US,CENTRAL TIME,-6,30.753305,-86.499077,
MTGMTX01,dac1,Dacus1,5408 N FM 1486 RD,,MONTGOMERY,TEXAS,77356,US,CENTRAL TIME,-6,30.445534,-95.792831,
KGGRVABH,dgn1,Dahlgren1,4718 JAMES MADISON PKWY,,KING GEORGE,VIRGINIA,22485,US,EASTERN TIME,-5,38.349098,-77.05719,
SBAYFLAJ,dct1,DeemCity1,22679 USHWY 27 S,,SOUTH BAY,FLORIDA,33430,US,EASTERN TIME,-5,26.33676,-80.539528,
DLSPFLAE,del1,Deland1,4500 SR11,,DE LEON SPRINGS,FLORIDA,32130,US,EASTERN TIME,-5,29.117424,-81.352959,
DELTUTBC,dlt1,Delta1,450 S 640 W,,DELTA,UTAH,84624,US,MOUNTAIN TIME,-7,39.352531,-112.576889,
DXTRMIBO,dex1,Dexter1,7822 2ND ST,,DEXTER,MICHIGAN,48130,US,EASTERN TIME,-5,42.337543,-83.879082,
DNWDVAAH,dnw1,Dinwiddie1,13011 BOYDTON PLANK RD,,DINWIDDIE,VIRGINIA,23841,US,EASTERN TIME,-5,37.09222,-77.571274,
DUMSTX01,dms1,Dumas1,6400 FM 722,,DUMAS,TEXAS,79029,US,CENTRAL TIME,-6,35.808041,-102.035431,
DURNNMAB,drn1,Duran1,19259 US HWY 54,,DURAN,NEW MEXICO,88301,US,MOUNTAIN TIME,-7,33.697506,-105.847168,
DURKORAB,drk1,Durkee1,29094 OLD HWY 30,,DURKEE,OREGON,97905,US,PACIFIC TIME,-8,44.589298,-117.471565,
EBRNTX02,ebn1,EastBernard1,11901 90A HWY,,EAST BERNARD,TEXAS,77435,US,CENTRAL TIME,-6,29.530565,-96.075531,
EDWDTX01,egw1,Edgewood1,810 SE FRONT ST,,EDGEWOOD,TEXAS,75117,US,CENTRAL TIME,-6,32.697483,-95.865135,
ELCNCACN,elc1,ElCentro1,1202 INDUSTRY WAY,,EL CENTRO,CALIFORNIA,92243,US,PACIFIC TIME,-8,32.78252,-115.528389,
EUGNORYS,eug1,Eugene1,90470 PRAIRIE RD,,EUGENE,OREGON,97402,US,PACIFIC TIME,-8,44.118286,-123.167953,
EVRTWABK,evr1,Everett1,1121 SE EVERETT MALL WAY,,EVERETT,WASHINGTON,98208,US,PACIFIC TIME,-8,47.912289,-122.217422,
CRPNNYAA,fac1,Factoryville1,23M EO ST HWY 22 ON ST HWY 903,,CROWN POINT,NEW YORK,12928,US,EASTERN TIME,-5,43.965054,-73.426422,
MNTIGAAL,flo1,Flovilla1,66M NO SHWY 16 & SHWY 221,,MONTICELLO,GEORGIA,31064,US,EASTERN TIME,-5,33.303196,-83.712646,
FRFTINBR,frk1,Frankfort1,687 E COUNTY ROAD 300 N,,FRANKFORT,INDIANA,46041,US,EASTERN TIME,-5,40.329025,-86.49295,
LSANCO03,fck1,Frick1,18900 COUNTY RD E,,LAS ANIMAS,COLORADO,81054,US,MOUNTAIN TIME,-7,37.701149,-103.034386,
SNSTTX01,fld1,Fruitland1,ST HWY 101 AT FRUITLAND RD,,SUNSET,TEXAS,76270,US,CENTRAL TIME,-6,33.498241,-97.79393,
YAKMWA09,ftv1,Fruitvale1,330 OLD NACHES HWY,,YAKIMA,WASHINGTON,98908,US,PACIFIC TIME,-8,46.643059,-120.597534,
GARYINII,gry1,Gary1,911 ADAMS ST,,GARY,INDIANA,46402,US,CST,-6,41.594158,-87.339775,
ARSNSCHS,glk1,Gluck1,109 MARTIN RD,,ANDERSON,SOUTH CAROLINA,29626,US,EASTERN TIME,-5,34.447876,-82.670502,
GDNGID01,gdg1,Gooding1,1721 S 2200 E,,GOODING,IDAHO,83330,US,MOUNTAIN TIME,-7,42.949806,-114.653618,
MRHNFL01,god1,Goodno1,10000 STATE ROAD 80 SW,,MOORE HAVEN,FLORIDA,33471,US,EASTERN TIME,-5,26.77071,-81.256004,
GRDNGAAD,grd1,Gordon1,S/O GORDON ON STRD 57,,GORDON,GEORGIA,31031,US,EASTERN TIME,-5,32.898048,-83.317474,
GFTNNE01,gft1,Grafton1,200 W NORTH ST,,GRAFTON,NEBRASKA,68365,US,CENTRAL TIME,-6,40.631672,-97.717468,
GNRVWY12,grr1,GreenRiver1,209 PURPLE SAGE RD,,GREEN RIVER,WYOMING,82935,US,MOUNTAIN TIME,-7,41.531017,-109.362701,
GNBPNCSY,gbo1,Greensboro1,5942 LAKE BRANDT RD,,GREENSBORO,NORTH CAROLINA,27455,US,EASTERN TIME,-5,36.167053,-79.834511,
GNBGINCE,gre1,Greensburg1,4407 E STATE ROAD 46,,GREENSBURG,INDIANA,47240,US,EASTERN TIME,-5,39.320309,-85.395821,
TACNAZAG,grw1,Growler1,437 NORTH AVE 49 E,,TACNA,ARIZONA,85352,US,MOUNTAIN TIME,-7,32.697186,-113.95314,
HOPEARBN,grn1,Guernsey1,166 HIGHWAY 353,,HOPE,ARKANSAS,71801,US,CENTRAL TIME,-6,33.644333,-93.678879,
HGLRNE01,hgr1,Haigler1,HWY 27 & HWY 34,,HAIGLER,NEBRASKA,69030,US,MOUNTAIN TIME,-7,40.014252,-101.933182,
HNFRCAEK,han1,Hanford1,11090 10 1/2 AVE,,HANFORD,CALIFORNIA,93230,US,PACIFIC TIME,-8,36.303459,-119.645905,
HIMNNYAL,him1,Harriman1,45.03 MP 4503 STATION 15,,HARRIMAN,NEW YORK,10926,US,EASTERN TIME,-5,41.308994,-74.155144,
HRWLNE01,htw1,Heartwell1,1632 41 RD,,HEARTWELL,NEBRASKA,68945,US,CENTRAL TIME,-6,40.572075,-98.780952,
UNTNPADG,hop1,Hopwood1,1200 FT SWO SHWY 40 & ATLAS CORNER RD,,UNIONTOWN,PENNSYLVANIA,15401,US,EASTERN TIME,-5,39.898544,-79.739418,
AUBNNE02,hwe1,Howe1,2M S/O 26 ON US HWY 75 E/O 725 FOR 1.5 MI,,AUBURN,NEBRASKA,68305,US,CENTRAL TIME,-6,40.349972,-95.885872,
HOWLUT01,how1,Howell1,18355 N HWY 84,,HOWELL,UTAH,84316,US,MOUNTAIN TIME,-7,41.820168,-112.418274,
TLDGALBV,hco1,Howellscove1,E/O COHWY 277 ON COHWY 332,,TALLADEGA,ALABAMA,35160,US,CENTRAL TIME,-6,33.400723,-86.103462,
NBRNTX02,hun1,Hunter1,6280 FM 1102,,NEW BRAUNFELS,TEXAS,78132,US,CENTRAL TIME,-6,29.783897,-98.050735,
IOWALAAE,iow1,Iowa1,16000 I-10 SERVICE RD,,IOWA,LOUISIANA,70647,US,CENTRAL TIME,-6,30.249643,-93.011864,
IVTNKY01,ivt1,Irvington1,1M NWO SHWY 477 ON SHWY 79,,IRVINGTON,KENTUCKY,40146,US,CENTRAL TIME,-6,37.880787,-86.285797,
ELWDILAK,jlt1,Joliet1,20145 W MANHATTAN RD,,ELWOOD,ILLINOIS,60421,US,CENTRAL TIME,-6,41.429474,-88.101547,
KLMZMITS,klz1,Kalamazoo1,830 E CROSSTOWN PKWY,,KALAMAZOO,MICHIGAN,49001,US,EASTERN TIME,-5,42.286301,-85.571487,
JEANNVAE,kea1,KeanyPass1,3000 FT EO I 15 & HWY 181 - GOODSPRINGS RD,,JEAN,NEVADA,89019,US,PACIFIC TIME,-8,35.782257,-115.331284,
KNVLFLAF,ken1,Kenansville1,390 S CANOE CREEK RD,,KENANSVILLE,FLORIDA,34739,US,EASTERN TIME,-5,27.876623,-81.026711,
KMBLOHAA,kmb1,Kimball1,11103 RANSOM RD,,MONROEVILLE,OHIO,44847,US,EASTERN TIME,-5,41.311935,-82.692719,
LFYTLAQV,laf1,Lafayette1,228 DISTRIBUTION DR,,LAFAYETTE,LOUISIANA,70507,US,CENTRAL TIME,-6,30.26041,-92.027634,
LAGROR03,lgr1,LaGrande1,58902 FOOTHILL RD,,LA GRANDE,OREGON,97850,US,PACIFIC TIME,-8,45.257877,-118.055061,
LNCSKS01,lnc1,Lancaster1,8491 KINGMAN RD,,LANCASTER,KANSAS,66041,US,CENTRAL TIME,-6,39.572559,-95.283463,
CSGRAZ20,lpa1,LaPalma1,5165 E STOREY RD,,COOLIDGE,ARIZONA,85128,US,MOUNTAIN TIME,-7,32.893951,-111.512169,
LARMWY18,lrm1,Laramie1,2271 PFE RD,,LARAMIE,WYOMING,82072,US,MOUNTAIN TIME,-7,41.333481,-105.595161,
SLEEMAAB,lee1,Lee1,765 CAPE ST,,LEE,MASSACHUSETTS,1238,US,EASTERN TIME,-5,42.300308,-73.214592,
PNVYCAAI,los1,LiveOakSprings1,36549 OLD HIGHWAY 80,,PINE VALLEY,CALIFORNIA,91962,US,PACIFIC TIME,-8,32.703926,-116.360222,
VERNUTAA,lof1,Lofgreen1,995 STHWY 36,,VERNON,UTAH,84080,US,MOUNTAIN TIME,-7,40.139198,-112.430801,
LLNGTX01,lul1,Luling1,530 W DAVIS ST,,LULING,TEXAS,78648,US,CENTRAL TIME,-6,29.68251,-97.665024,
OKCBFLBH,mcy1,Marcy1,10151 SE 126TH BLVD,,OKEECHOBEE,FLORIDA,34974,US,EASTERN TIME,-5,27.153027,-80.693138,
MTVLMO01,mth1,Marthasville1,103 PEERS BLUFF RD,,MARTHASVILLE,MISSOURI,63357,US,CENTRAL TIME,-6,38.633999,-91.115601,
MLFRUT01,mfd1,Milford1,1070 E 3100 N,,MILFORD,UTAH,84751,US,MOUNTAIN TIME,-7,38.394733,-113.011497,
PRCHAL02,mob1,Mobile1,208 TELEGRAPH RD,,MOBILE,ALABAMA,36610,US,CENTRAL TIME,-6,30.736345,-88.066689,
KLFLOR04,mdp1,ModocPoint1,16001 ALGOMA RD,,KLAMATH FALLS,OREGON,97601,US,PACIFIC TIME,-8,42.370388,-121.802521,
RCSPWYCC,mnl1,Monell1,329 PATRICK DRAW RD,,ROCK SPRINGS,WYOMING,82901,US,MOUNTAIN TIME,-7,41.601578,-108.51915,
CLNTNVAE,mnc1,MonumentCanyon1,16M NEO USHWY 93,,CALIENTE,NEVADA,89008,US,PACIFIC TIME,-8,37.616699,-114.514549,
MRPKCACA,mpk1,Moorpark1,5245 KAZUKO CT,,MOORPARK,CALIFORNIA,93021,US,PACIFIC TIME,-8,34.281269,-118.89315,
MORUNYAG,mor1,Moreau1,10364 FORT EDWARD RD,,MOREAU,NEW YORK,12828,US,EASTERN TIME,-5,43.270477,-73.608498,
DMNGNM10,myn1,Myndus1,18785 AMAPOLA RD SE,,DEMING,NEW MEXICO,88030,US,MOUNTAIN TIME,-7,32.257057,-107.456161,
NSVMTN17,nvl1,Nashville1,2990 SIDCO DR,,NASHVILLE,TENNESSEE,37204,US,CENTRAL TIME,-6,36.102448,-86.755295,
FLTNGAAG,nwl1,Newell1,400YDS E/O INTERSTATE HWY 94 & INTERSTATE HWY 95,,FOLKSTON,GEORGIA,31537,US,EASTERN TIME,-5,30.882687,-82.034248,
NWORLA23,nor3,NewOrleans3,639 LOYOLA AVE,ENTERGY TOWER,NEW ORLEANS,LOUISIANA,70113,US,CENTRAL TIME,-6,29.949169,-90.076485,
MOBLALOW,mob2,Mobile2,50 N LAWRENCE ST,,MOBILE,ALABAMA,36602,US,CENTRAL TIME,-6,30.690855,-88.048401,
MOBLALUI,mob3,Mobile3,3735 NEWMAN RD,,MOBILE,ALABAMA,36695,US,CENTRAL TIME,-6,30.6133,-88.345589,
LSBGTX01,nsm1,Newsome1,12108 STATE HIGHWAY 11 W,,LEESBURG,TEXAS,75451,US,CENTRAL TIME,-6,32.963299,-95.140465,
NILSMICL,nls1,Niles1,3345 E US HIGHWAY 12,,NILES,MICHIGAN,49120,US,EASTERN TIME,-5,41.805416,-86.343155,
NBNDWA03,nbd1,NorthBend1,43317 SE NORTH BEND WAY,,NORTH BEND,WASHINGTON,98045,US,PACIFIC TIME,-8,47.48225,-121.762291,
MEBNNCAT,oks1,Oaks1,6515 HWY 54 W,,MEBANE,NORTH CAROLINA,27302,US,EASTERN TIME,-5,35.95462,-79.259583,
ODLLIL01,ode1,Odell1,19389 E 2300 NORTH RD,,ODELL,ILLINOIS,60460,US,CENTRAL TIME,-6,40.962486,-88.508606,
OGDNUT48,ogd1,Ogden1,526 W 17TH ST,,OGDEN,UTAH,84404,US,MOUNTAIN TIME,-7,41.236938,-111.990471,
BOWIAZ01,olg1,Olga1,1320 S CAMINO SOMBREADO,,BOWIE,ARIZONA,85605,US,MOUNTAIN TIME,-7,32.326271,-109.485985,
OLYMWA09,olp1,Olympia1,3348 MARVIN RD SE,,OLYMPIA,WASHINGTON,98503,US,PACIFIC TIME,-8,47.014278,-122.754227,
ONTROR14,ont1,Ontario1,SE 2ND ST E ISLAND RD,,ONTARIO,OREGON,97914,US,MOUNTAIN TIME,-7,44.009281,-116.966164,
ORGRNMAA,oro1,Orogrande1,2868 US HWY 54,,OROGRANDE,NEW MEXICO,88310,US,MOUNTAIN TIME,-7,32.866886,-105.968727,
KELSWA02,osr1,Ostrander1,4318 PLEASANT HILL RD,,KELSO,WASHINGTON,98626,US,PACIFIC TIME,-8,46.218426,-122.895729,
OXNRCAII,oxn1,Oxnard1,300 KINETIC DR,,OXNARD,CALIFORNIA,93030,US,PACIFIC TIME,-8,34.203522,-119.132614,
PLCDCA01,pce1,PaloCedro1,22020 PALO WAY,,PALO CEDRO,CALIFORNIA,96073,US,PACIFIC TIME,-8,40.55529,-122.237885,
PNSCFL62,pca1,Pensacola1,9700 N DAVIS HWY,,PENSACOLA,FLORIDA,32514,US,CENTRAL TIME,-6,30.5343,-87.203392,
PRRYFLAG,pey1,Perry1,3400 CARLTON CEMETARY RD,,PERRY,FLORIDA,32348,US,EASTERN TIME,-5,30.062536,-83.573189,
NRTEMDBC,pry1,Perryville1,.56M NEO RED TOAD RD ON I-95,,NORTH EAST,MARYLAND,21911,US,EASTERN TIME,-5,39.698074,-76.062767,
PRTHONBC,per1,Perth1,156 CHRISTIE LAKE NORTH SHORE RD,,PERTH,ONTARIO,K7H 3C6,CA,EASTERN TIME,-5,44.826496,-76.394836,
PTBOONET,pet1,Peterborough1,134 JAMESON DR,,PETERBOROUGH,ONTARIO,K9J 6X6,CA,EASTERN TIME,-5,44.264572,-78.352768,
ENWDCOUH,enw1,Englewood1,9706 E EASTER AVE,BUILDING C,CENTENNIAL,COLORADO,80112,US,MOUNTAIN TIME,-7,39.587662,-104.876251,
ORNGTXEG,pin1,Pinehurst1,6008 TULANE RD,,ORANGE,TEXAS,77630,US,CENTRAL TIME,-6,30.095081,-93.813492,
PUBLCO50,pnn1,Pinon1,325 PACE RD,,PUEBLO,COLORADO,81008,US,MOUNTAIN TIME,-7,38.350948,-104.619492,
PLVWIL01,pln1,Plainview1,11417 SHIPMAN RD,,PLAINVIEW,ILLINOIS,62685,US,CENTRAL TIME,-6,39.163166,-89.988724,
OTISCO01,plt1,Platner1,40395 COUNTY ROAD KK,,OTIS,COLORADO,80743,US,MOUNTAIN TIME,-7,40.192123,-103.07885,
PPVLMSAM,pop1,Poplarville1,142 BARLOW LN,,POPLARVILLE,MISSISSIPPI,39470,US,CENTRAL TIME,-6,30.82691,-89.521278,
PRSRWA02,prs1,Prosser1,89303 SELLARDS RD,,PROSSER,WASHINGTON,99350,US,PACIFIC TIME,-8,46.123699,-119.679451,
RWLNWY10,rwl1,Rawlins1,1000 HADSELL RD,,RAWLINS,WYOMING,82301,US,MOUNTAIN TIME,-7,41.78194,-107.368088,
LBRTTXBT,ray1,Raywood1,3008 E US HIGHWAY 90,,LIBERTY,TEXAS,77575,US,CENTRAL TIME,-6,30.043863,-94.682915,
PTLDTNAS,reu1,Reubensville1,5618 HIGHWAY 31 W,,PORTLAND,TENNESSEE,37148,US,CENTRAL TIME,-6,36.60051,-86.584869,
RVRSID01,rev1,Reverse1,7505 S HWY 30,,REVERSE,IDAHO,83647,US,MOUNTAIN TIME,-7,43.095493,-115.668045,
HLTNIN01,rex1,Rexville1,US HWY 421 & CORD 1025,,HOLTON,INDIANA,47023,US,EASTERN TIME,-5,38.929165,-85.357559,
PNTNOR02,rth1,Rieth1,7500 NW A AVE,,PENDLETON,OREGON,97801,US,PACIFIC TIME,-8,45.688255,-118.845123,
ATLNTXBC,roa1,Roach1,59 CORD 1925,,ATLANTA,TEXAS,75551,US,CENTRAL TIME,-6,33.059551,-94.272446,
MRQZTXAC,rob1,Robbins1,3323 FM 39 S,,MARQUEZ,TEXAS,77865,US,CENTRAL TIME,-6,31.202814,-96.1306,
MNPLTN01,roc1,Rockdale1,9001 NEW LAWRENCEBURG HWY,,MOUNT PLEASANT,TENNESSEE,38474,US,CENTRAL TIME,-6,35.449833,-87.267471,
RCFRCO03,rky1,RockyFord1,18791 STATE HIGHWAY 202,,ROCKY FORD,COLORADO,81067,US,MOUNTAIN TIME,-7,38.055088,-103.733269,
RMROTXAA,roe1,Romero1,1M NO CORD 11 @ HWY 54,,ROMERO,TEXAS,79044,US,CENTRAL TIME,-6,35.877209,-102.35096,
RPRTID01,rup1,Rupert1,529 N 300 W,,RUPERT,IDAHO,83350,US,MOUNTAIN TIME,-7,42.697456,-113.724815,
SALMORSW,slm1,Salem1,2001 16TH ST NE,,SALEM,OREGON,97301,US,PACIFIC TIME,-8,44.95462,-123.014359,
SLBRNCGD,sal1,Salisbury1,1900 SHERRILLS FORD RD,,SALISBURY,NORTH CAROLINA,28147,US,EASTERN TIME,-5,35.66687,-80.526321,
DELNCABV,sad1,Sandrini1,28931 STHWY 155,,DELANO,CALIFORNIA,93215,US,PACIFIC TIME,-8,35.761543,-119.146942,
SNBBCA17,sba1,SantaBarbara1,122 HELENA AVE,,SANTA BARBARA,CALIFORNIA,93101,US,PACIFIC TIME,-8,34.41441,-119.690147,
SNRSNM02,sra1,SantaRosa1,US HWY 84 ON I40,,SANTA ROSA,NEW MEXICO,88435,US,MOUNTAIN TIME,-7,34.892323,-104.597633,
SGRTNYAV,sau1,Saugerties1,2742 ROUTE 32,,SAUGERTIES,NEW YORK,12477,US,EASTERN TIME,-5,42.085831,-73.975456,
SYBKOH01,say1,Saybrook1,450 N RIDGE RD W,,ASHTABULA,OHIO,44004,US,EASTERN TIME,-5,41.869499,-80.784889,
HRLYNM02,45536,Separ1,4240 SEPAR RD,,HURLEY,NEW MEXICO,88043,US,MOUNTAIN TIME,-7,32.698902,-108.128548,
SHVLTNAZ,shb1,Shelbyville1,542 SHELBYVILLE MILLS RD,,SHELBYVILLE,TENNESSEE,37160,US,CENTRAL TIME,-6,35.47324,-86.492638,
STDVAZ01,sby1,Sibyl1,1220 N SIBYL RD,,SAINT DAVID,ARIZONA,85630,US,MOUNTAIN TIME,-7,31.927813,-110.211334,
BAKRCAAJ,sla1,Silverlake1,60060 POWER LINE RD,,BAKER,CALIFORNIA,92309,US,PACIFIC TIME,-8,35.369747,-116.156105,
SLIDLAFW,sld1,Slidell1,46532 HWY 90,,SLIDELL,LOUISIANA,70461,US,CENTRAL TIME,-6,30.221222,-89.684792,
SLDDCAAP,sol1,Soledad1,500 FRONT ST,,SOLEDAD,CALIFORNIA,93960,US,PACIFIC TIME,-8,36.426552,-121.330299,
SRNTLAAC,srt1,Sorrento1,7530 JOHN LE BLANC BLVD,,SORRENTO,LOUISIANA,70774,US,CENTRAL TIME,-6,30.173933,-90.875069,
GFNYSCDH,spa1,Spartanburg1,166 LOG CABIN RD,,GAFFNEY,SOUTH CAROLINA,29340,US,EASTERN TIME,-5,34.986431,-81.731644,
SPFDILYZ,spg1,Springfield1,101 MARCHELLE AVE,,SPRINGFIELD,ILLINOIS,62704,US,CENTRAL TIME,-6,39.820625,-89.708908,
PLLKCO01,spc1,Spruce1,481 COUNTY LINE RD,,PALMER LAKE,COLORADO,80133,US,MOUNTAIN TIME,-7,39.12537,-104.907509,
CHYNWY51,sli1,StateLine1,275 TERRY RANCH RD,,CHEYENNE,WYOMING,82007,US,MOUNTAIN TIME,-7,41.05619,-104.798462,
STAGFLGL,stu1,StAugustine1,4800 US HIGHWAY 1 S,,ST AUGUSTINE,FLORIDA,32086,US,EASTERN TIME,-5,29.801592,-81.319778,
SKTOCACM,sck1,Stockton1,2079 E MINER AVE,,STOCKTON,CALIFORNIA,95205,US,PACIFIC TIME,-8,37.960991,-121.264343,
SUISCA01,sui1,Suisun1,EO BLDG 54 TRAVIS AIR FORCE BLDG,,SUISUN CITY,CALIFORNIA,94585,US,PACIFIC TIME,-8,38.250427,-122.016556,
THCHCABM,sum1,Summit1,SO HWY 58 @ SAND CANYON EXIT,,MONOLITH,CALIFORNIA,93561,US,PACIFIC TIME,-8,35.108891,-118.323059,
BXLYGABG,sur1,Surrency1,NO YELLOW JACKET RD & DALTON RD & HWY 15,,BAXLEY,GEORGIA,31513,US,EASTERN TIME,-5,31.682461,-82.269257,
SOTNGAAD,trt1,Tarrytown1,TRACT #2 WEST OF TARRYTOWN,,SOPERTON,GEORGIA,30457,US,EASTERN TIME,-5,32.349834,-82.581085,
TLLKCAAB,tio1,Tionesta1,4187C COUNTY RD 97,,TULELAKE,CALIFORNIA,96134,US,PACIFIC TIME,-8,41.63232,-121.371948,
VERNTX02,tlb1,Tolbert1,2719 COUNTY ROAD 93 S,,VERNON,TEXAS,76384,US,CENTRAL TIME,-6,34.218369,-99.3974,
TORVONRF,tor1,Toronto1,8 GARAMOND CRT,UNDETERMINED BLDG,TORONTO,ONTARIO,M3C 1Z4,CA,EASTERN TIME,-5,43.727261,-79.334938,
TCSOAZ01,tcs1,Tucson1,450 S TOOLE AVE,,TUCSON,ARIZONA,85701,US,PACIFIC TIME,-8,32.21608,-110.961372,
TCMCNMAN,tcr1,Tucumcari1,6665 QUAY ROAD AR,,TUCUMCARI,NEW MEXICO,88401,US,MOUNTAIN TIME,-7,35.223408,-103.773117,
TLRSNM01,tra1,Tularosa1,6470 US HWY 54,,TULAROSA,NEW MEXICO,88352,US,MOUNTAIN TIME,-7,33.228691,-106.060265,
TWEDONAG,twe1,Tweed1,127 RIVER ST W,BUILDING F,TWEED,ONTARIO,K0K 3J0,CA,EASTERN TIME,-5,44.475109,-77.308228,
WACOTX64,wac1,Waco1,3311 CLAY AVE,,WACO,TEXAS,76711,US,CENTRAL TIME,-6,31.53002,-97.154388,
WHSTUTAA,wah1,Wahsatch1,10M WO I-80 ON EXIT 193,,WAHSATCH,UTAH,84033,US,MOUNTAIN TIME,-7,41.015381,-111.498871,
WLNTMSAB,wal1,Walnut1,150 COUNTY ROAD 129,,WALNUT,MISSISSIPPI,38683,US,CENTRAL TIME,-6,34.954483,-88.835854,
LTRKCAAG,was1,Wash1,36425 96TH ST E,,LITTLEROCK,CALIFORNIA,93543,US,PACIFIC TIME,-8,34.520988,-117.958076,
BRTNFL17,wat1,Waterbury1,3450 CORD 675,,BRADENTON,FLORIDA,34211,US,EASTERN TIME,-5,27.46743,-82.303871,
WASHDCSC,wdc16,Washington16,400 N CAPITOL ST NW,,WASHINGTON,DISTRICT OF COLUMBIA,20001,US,EASTERN TIME,-5,38.895401,-77.009598,
WEMRTX02,wei1,Weimar1,1028 90 HWY,,WEIMAR,TEXAS,78962,US,CENTRAL TIME,-6,29.700834,-96.805923,
WYVLPAAA,wes1,Wesleyville1,WALBRIDGE RD AT HWY 955,,WESLEYVILLE,PENNSYLVANIA,16510,US,EASTERN TIME,-5,42.152428,-79.995613,
LMPCCADL,whi1,WhiteHills1,331 N A ST,,LOMPOC,CALIFORNIA,93436,US,PACIFIC TIME,-8,34.642685,-120.448997,
WHPLNY55,whp1,WhitePlains1,55 CHURCH ST,,WHITE PLAINS,NEW YORK,10601,US,EASTERN TIME,-5,41.03352,-73.767242,
WDNRARAA,wdn1,Widener1,6869 HIGHWAY 70 E,,WIDENER,ARKANSAS,72394,US,CENTRAL TIME,-6,35.049568,-90.692993,
WLCTINAC,wol1,Wolcott1,10111 W DIVISION RD,,WOLCOTT,INDIANA,47995,US,EASTERN TIME,-5,40.751534,-87.062752,
BRYLUT01,ycr1,YaleCrossing1,8471 N 5600 W,,BERYL,UTAH,84714,US,MOUNTAIN TIME,-7,37.862659,-113.785423,
YUMAAZ45,yum1,Yuma1,1276 E 21ST ST,,YUMA,ARIZONA,85365,US,MOUNTAIN TIME,-7,32.689941,-114.60775,
ATLTIAAL,atc1,Atlantic1,56639 570TH ST,,ATLANTIC,IOWA,50022,US,CENTRAL TIME,-6,41.415115,-95.09874,
STRTIAAF,sua1,Stuart1,308 E FRONT ST,EAST BLDG 1,STUART,IOWA,50250,US,CENTRAL TIME,-6,41.503647,-94.315376,
PLHLIAAD,plh1,PleasantHill1,4550 CARLISLE RD,,PLEASANT HILL,IOWA,50327,US,CENTRAL TIME,-6,41.557629,-93.527122,
ROLDIAAB,rld1,Roland1,12951 610TH AVE,,ROLAND,IOWA,50236,US,CENTRAL TIME,-6,42.16748,-93.483009,
LTMRIAAB,ltm1,Latimer1,1825 FINCH AVE,,LATIMER,IOWA,50452,US,CENTRAL TIME,-6,42.807213,-93.399452,
NWODIAAP,hnt1,Hanlontown1,807 435TH ST,,NORTHWOOD,IOWA,50459,US,CENTRAL TIME,-6,43.393223,-93.35862,
HOPEMNAA,owa1,Owatonna1,6391 SW 68TH ST,,OWATONNA,MINNESOTA,55060,US,CENTRAL TIME,-6,43.993259,-93.276611,
NRFDMNBI,nfd1,Northfield1,6730 320TH ST W,,NORTHFIELD,MINNESOTA,55057,US,CENTRAL TIME,-6,44.48558,-93.204384,
WDVLWIAB,wdv1,Woodville1,2560 50TH AVE,,BALDWIN,WISCONSIN,54002,US,CENTRAL TIME,-6,44.932812,-92.328056,
MNMNWICW,mnm1,Menomonie1,6156 COUNTY RD E,,MENOMONIE,WISCONSIN,54751,US,CENTRAL TIME,-6,44.879917,-91.833992,
MRLNWIAD,mrl1,Merrillan1,W10022 GARAGE RD,,MERRILLAN,WISCONSIN,54754,US,CENTRAL TIME,-6,44.40596,-90.813515,
TOMAWIBJ,tom1,Tomah1,29179 DORSET AVE,,TOMAH,WISCONSIN,54660,US,CENTRAL TIME,-6,44.050819,-90.41008,
GDMRWIAC,gdm1,GrandMarsh1,2655 5TH AVE,,GRAND MARSH,WISCONSIN,53936,US,CENTRAL TIME,-6,43.908318,-89.677719,
PDVLWIAJ,pdv1,Pardeeville1,N7883 STATE ROAD 44,,PARDEEVILLE,WISCONSIN,53954,US,CENTRAL TIME,-6,43.566509,-89.266335,
MDSNWI04,mds1,Madison1,612 W MAIN ST,,MADISON,WISCONSIN,53703,US,CENTRAL TIME,-6,43.06786,-89.392288,
DSMNWIAG,dsm1,Dousman1,311 VENTURE DR,,DOUSMAN,WISCONSIN,53118,US,CENTRAL TIME,-6,43.017384,-88.4646,
MILXWINR,mlw2,Milwaukee2,507 S 2ND ST,Level 3/Wiltel,MILWAUKEE,WISCONSIN,53204,US,CENTRAL TIME,-6,43.025921,-87.91301,
ZIONILDY,zio1,Zion1,43185 N US HIGHWAY 41,,ZION,ILLINOIS,60099,US,CENTRAL TIME,-6,42.490429,-87.95031,
BLCYNVFD,mpl1,Marketplace1,895 EL DORADO VALLEY DR,,BOULDER CITY,NEVADA,89005,US,PACIFIC TIME,-8,35.80637,-115.008682,
SRCHNVAQ,shl1,Searchlight1,1850 STHWY 164,,SEARCHLIGHT,NEVADA,89046,US,PACIFIC TIME,-8,35.476482,-114.816124,
BLCYAZBJ,dvd1,DavisDam1,2500 STHWY 68,,BULLHEAD CITY,ARIZONA,86426,US,MOUNTAIN TIME,-7,35.189468,-114.539864,
TPCKAZAC,tpk1,Topock1,6749 HWY 95,,TOPOCK,ARIZONA,86436,US,MOUNTAIN TIME,-7,34.814537,-114.50251,
PRDMCAAL,prd1,ParkerDam1,PARKER DAM RD ON 159000 IXC RD,,PARKER DAM,CALIFORNIA,92267,US,PACIFIC TIME,-8,34.295555,-114.140831,
WNDNAZAA,hrc1,Harcuvar1,27001 CUNNINGHAM PASS RD,,WENDEN,ARIZONA,85357,US,MOUNTAIN TIME,-7,33.82135,-113.54261,
TNPHAZAQ,tnp1,Tonopah1,I-10 @ EXIT 109,,TONOPAH,ARIZONA,85354,US,MOUNTAIN TIME,-7,33.591099,-112.717598,
PHNAAZ27,phx3,Phoenix3,13936 W BROADWAY RD,,GOODYEAR,ARIZONA,85338,US,MOUNTAIN TIME,-7,33.406509,-112.358002,
MRCPAZ04,hlh1,HaleyHills1,5454 N SAGE ST,,MARICOPA,ARIZONA,85139,US,MOUNTAIN TIME,-7,32.929485,-112.168999,
ELOYAZ03,svb1,Silverbell1,37639 ANDROMEDA ST,Silver Bell-LH,ELOY,ARIZONA,85131,US,MOUNTAIN TIME,-7,32.551514,-111.732712,
THPNAZAB,tpt1,ThreePoints1,15685 W HERMANS RD,Three Points-LH,TUCSON,ARIZONA,85735,US,PACIFIC TIME,-8,32.101002,-111.301178,
TCSMAZIJ,tcs3,Tucson3,9521 S WILMOT RD,,TUCSON,ARIZONA,85756,US,PACIFIC TIME,-8,32.082779,-110.857925,
TCSMAZSJ,tcs2,Tucson2,135 N 6TH AVE,WILLIAMS POP,TUCSON,ARIZONA,85701,US,PACIFIC TIME,-8,32.22411,-110.968887,
BNSNAZBN,wlk1,WillowLake1,2300 W LARRY BINGHAM LN,,BENSON,ARIZONA,85602,US,MOUNTAIN TIME,-7,32.079582,-110.356735,
WLCXAZBF,sqm1,SquareMountain1,7951 N LAYTON LN,,WILLCOX,ARIZONA,85643,US,PACIFIC TIME,-8,32.35799,-109.935814,
SFFRAZBY,tnq1,Tanque1,21751 E US HWY 70,,SAFFORD,ARIZONA,85546,US,PACIFIC TIME,-8,32.751541,-109.341476,
CFTNAZAC,gle1,Greenlee1,3001 SUBSTATION RD,,CLIFTON,ARIZONA,85533,US,PACIFIC TIME,-8,33.013294,-109.25119,
LRBGNMAF,brd1,Border1,OFF HWY 70 BETWEEN 12 AND 13 MILE MARKER,,LORDSBURG,NEW MEXICO,88045,US,MOUNTAIN TIME,-7,32.348381,-108.707191,
HRLYNMAB,gra1,Grant1,2225 SEPAR RD,,HURLEY,NEW MEXICO,88043,US,MOUNTAIN TIME,-7,32.698902,-108.128548,
DMNGNMBY,dmg1,Deming1,2545 ARROWHEAD DR NE,,DEMING,NEW MEXICO,88030,US,PACIFIC TIME,-8,32.297783,-107.794884,
LSCRNMPD,mck1,McKenna1,28555 STHWY 549,WEST BUILDING,LAS CRUCES,NEW MEXICO,88005,US,MOUNTAIN TIME,-7,32.212032,-107.253792,
ELPWTXVW,ftb1,FtBliss1,ANZIO RD @ VALLEY RD,,EL PASO,TEXAS,79916,US,MOUNTAIN TIME,-7,31.945999,-106.181,
SRBLTXAL,sib1,SierraBlanca1,105725 I-10 ACCESS RD,,SIERRA BLANCA,TEXAS,79851,US,MOUNTAIN TIME,-7,31.194021,-105.426216,
TOYHTXAA,toy1,Toyah1,1101 W SOUTH FRONTAGE RD,,TOYAH,TEXAS,79785,US,CENTRAL TIME,-6,31.315073,-103.783394,
PYTETXAD,pyo1,Pyote1,300 S ACCESS RD OFF I-20,,PYOTE,TEXAS,79777,US,CENTRAL TIME,-6,31.526388,-103.134445,
ODSSTXIP,pen1,Penwell1,24651 W I-20,,ODESSA,TEXAS,79760,US,CENTRAL TIME,-6,31.846695,-102.366882,
MDLDTXAG,mdl2,Midland2,2719 S MIDKIFF RD,,MIDLAND,TEXAS,79706,US,CENTRAL TIME,-6,31.962902,-102.104752,
BGSPTXGO,bis1,BigSpring1,3500 I 20 SERVICE RD N,,BIG SPRING,TEXAS,79720,US,CENTRAL TIME,-6,32.233761,-101.528519,
CLCYTXBI,coc1,ColoradoCity1,N NA I-20 @ NA EXIT 212,,COLORADO CITY,TEXAS,79512,US,CENTRAL TIME,-6,32.391899,-100.930603,
ABLNTXFC,abi1,Abilene1,1001 E OVERLAND TRL,,ABILENE,TEXAS,79601,US,CENTRAL TIME,-6,32.460365,-99.675323,
MNGSTXAH,cpr1,CapRanch1,NA I-20 @ NA EXIT 367,,MINGUS,TEXAS,76463,US,CENTRAL TIME,-6,0,0,
WTFRTXPF,wef1,Weatherford1,NA I-20 @ NA EXIT 406,,WEATHERFORD,TEXAS,76086,US,CENTRAL TIME,-6,0,0,
LCGVGAMG,lcg1,LocustGrove1,825 AMELIA RD,,LOCUST GROVE,GEORGIA,30248,US,EASTERN TIME,-5,33.321522,-84.160355,
AMRCGA06,amc1,Americus1,199 CRISP DR,,AMERICUS,GEORGIA,31719,US,EASTERN TIME,-5,32.100189,-84.218903,
CAIRGAAL,cai1,Cairo1,279 OPEN POND RD,,CAIRO,GEORGIA,39827,US,EASTERN TIME,-5,30.90991,-84.286102,
TLHSFLPW,tal1,Tallahassee1,619 MABRY ST,,TALLAHASSEE,FLORIDA,32304,US,EASTERN TIME,-5,30.43671,-84.328117,
SBWKNJVA,prn2,Princeton2,431 RIDGE RD,BUILDING 2,DAYTON,NEW JERSEY,8810,US,EASTERN TIME,-5,40.375843,-74.517265,
DBLNIREU,dub2,Dublin2,3A PRINCES STREET SOUTH ST,,DUBLIN,DUBLIN,2,IE,"DUBLIN,EDINBURGH,LONDON,LISBON",0,53.346691,-6.25009,
CLSPCO16,csp1,ColoradoSprings1,2221 E BIJOU ST,,COLORADO SPRINGS,COLORADO,80909,US,MOUNTAIN TIME,-7,38.834492,-104.788139,
AURRCOYQ,den7,Denver7,23901 E 6TH AVE,,AURORA,COLORADO,80018,US,MOUNTAIN TIME,-7,39.726189,-104.70993,
CHRNNCYP,clt3,Charlotte3,825 HAMILTON ST,,CHARLOTTE,NORTH CAROLINA,28206,US,EASTERN TIME,-5,35.240051,-80.848671,
FTWQTXDE,ftw2,FortWorth2,1119 NE 23RD ST,,FORT WORTH,TEXAS,76164,US,CENTRAL TIME,-6,32.785957,-97.340836,
FTWOTXHS,ftw4,FortWorth4,810 HOUSTON ST,WT WAGGONER BLDG (XTO),FORT WORTH,TEXAS,76102,US,CENTRAL TIME,-6,32.752159,-97.33075,
MPLTMN48,min5,Minneapolis5,2800 E 34TH ST,,MINNEAPOLIS,MINNESOTA,55406,US,CENTRAL TIME,-6,44.941792,-93.2323,
ORLFFLFF,orl6,Orlando6,5915 S RIO GRANDE AVE,Level 3,ORLANDO,FLORIDA,32809,US,EASTERN TIME,-5,28.471338,-81.400253,
CHNDAZSP,phx8,Phoenix8,2121 S PRICE RD,,CHANDLER,ARIZONA,85286,US,MOUNTAIN TIME,-7,33.27478,-111.886925,
CLVRSCAJ,clv1,Clover1,2154 TEMPLETON RD,,CLOVER,SOUTH CAROLINA,29710,US,EASTERN TIME,-5,35.076241,-81.291466,
OLDSFLRO,tmp8,Tampa8,11710 RACE TRACK RD,,OLDSMAR,FLORIDA,33626,US,EASTERN TIME,-5,28.058455,-82.655014,
PLDLCADR,pld1,Palmdale1,37918 6TH ST E,,PALMDALE,CALIFORNIA,93550,US,PACIFIC TIME,-8,34.571091,-118.117058,
MRTPMIBP,btl1,BattleCreek1,13500 G DR N,,MARSHALL,MICHIGAN,49068,US,EASTERN TIME,-5,42.296638,-85.031898,
BARCSPCC,bcl1,Barcelona1,CARRER DE LACER 30-32,PL 1,BARCELONA,CATALUNYA,8038,ES,PACIFIC TIME,-8,41.238991,1.73011,
MRSLFR01,mrs1,Marseille1,AVENUE ROGER SALENGRO 40,,MARSEILLE,PROVENCE-ALPES-COTE-D''AZUR,13003,FR,CET  CENTRAL EUROPEAN,1,43.310326,5.373444,
VALNSPAR,val1,Valencia1,TERMINO MUNICIPAL DE SAN ANTONIO DE REQUENA,,SAN ANTONIO,VALENCIA,46390,ES,CET  CENTRAL EUROPEAN,1,39.525414,-1.147782,
BARCSPCG,bcl2,Barcelona2,CALLE JOSE AGUSTIN GOYTISOLO 37-39,,LHOSPITALET DE LLOBREGAT,BARCELONA,8908,ES,CET  CENTRAL EUROPEAN,1,41.350819,2.124191,
Z0000068,phx9,Phoenix9,6702 E BERNEIL DR,,PARADISE VLY,ARIZONA,85253,US,MST,-7,33.569355,-111.936569,
HMPNVAKZ,ngu2,Norfolk2,9 N DRYDEN ST,BLDG 1211,HAMPTON,VIRGINIA,23681,US,EASTERN TIME,-5,37.10062,-76.384644,
SNDYORBL,por3,Portland3,45161 SE COALMAN RD,,SANDY,OREGON,97055,US,PACIFIC TIME,-8,45.388863,-122.197517,
PRDLORAA,pdl1,Parkdale1,686 HESS RD,,PARKDALE,OREGON,97041,US,PACIFIC TIME,-8,45.533978,-121.563263,
MAUPORAE,mau1,Maupin1,86200 BAKEOVEN RD,,MAUPIN,OREGON,97037,US,PACIFIC TIME,-8,45.171906,-121.075615,
MDRSORAS,mdj1,Madras1,91 SW DOVER LN,Madras-LH,MADRAS,OREGON,97741,US,PACIFIC TIME,-8,44.592049,-121.130234,
MDRSORAR,mdj2,Madras2,5531 SE RAMMS RD,,MADRAS,OREGON,97741,US,PACIFIC TIME,-8,44.487865,-121.018829,
BENDORPQ,bnd1,Bend1,63500 PIONEER LOOP,,BEND,OREGON,97701,US,PACIFIC TIME,-8,44.105995,-121.247726,
SNDYORBI,por4,Portland4,55190 SE BEAR GARDEN RD,,SANDY,OREGON,97055,US,PACIFIC TIME,-8,45.377399,-122.096817,
PNGVORXX,png1,PineGrove1,77708 HIGHWAY 216,,MAUPIN,OREGON,97037,US,PACIFIC TIME,-8,45.108616,-121.364723,
MAUPORAF,mau2,Maupin2,50500 USHWY 197,,MAUPIN,OREGON,97037,US,PACIFIC TIME,-8,45.235653,-121.142151,
THDLORXA,thd1,TheDalles1,203 E 4TH ST,,THE DALLES,OREGON,97058,US,PACIFIC TIME,-8,45.600639,-121.183884,
VALNSPAF,val2,Valencia2,EL OLIVERAL,,VALENCIA,VALENCIA,46026,ES,CET  CENTRAL EUROPEAN,1,39.481022,-0.527646,
VALNSPAS,val3,Valencia3,SN CAMINO MOLINO DE LAS FUENTES,,VALENCIA,VALENCIA,46026,ES,CET  CENTRAL EUROPEAN,1,39.440136,-0.370114,
BOTHWALJ,sea9,Seattle9,21720 23RD DR SE,,BOTHELL,WASHINGTON,98021,US,PACIFIC TIME,-8,47.800659,-122.202469,
MTGLOHAL,mtg1,MountGilead1,CONRAIL (MP 96.62) & TOWNSHIP RD 128,,MOUNT GILEAD,OHIO,43338,US,EASTERN TIME,-5,40.539165,-82.875557,
MTGLOHXA,mtg2,MountGilead2,47 E CENTER ST,,MOUNT GILEAD,OHIO,43338,US,EASTERN TIME,-5,40.548431,-82.82756,
MTGMTXWS,dac2,Dacus2,550 CLUB DR,,MONTGOMERY,TEXAS,77316,US,CENTRAL TIME,-6,30.378241,-95.668663,
JCSNMS91,45293,Jackson2,111 E CAPITOL ST,,JACKSON,MISSISSIPPI,39201,US,CENTRAL TIME,-6,32.299641,-90.187813,
CISCTXBH,cis1,Cisco1,NA COUNTY ROAD 143 @ I-20,,CISCO,TEXAS,76437,US,CENTRAL TIME,-6,32.37442,-99.088181,
SWTWTXDQ,swt1,Sweetwater1,NA COUNTY ROAD 226 @ I-20,,SWEETWATER,TEXAS,79556,US,CENTRAL TIME,-6,32.494099,-100.2873,
KENTTXAD,knt1,Kent1,181535 A EAST I-10,,KENT,TEXAS,79855,US,CENTRAL TIME,-6,31.050375,-104.833191,
FTHNTXAE,fth2,FtHancock2,74901 I-10,,FORT HANCOCK,TEXAS,79839,US,MOUNTAIN TIME,-7,31.21913,-105.764053,
FTHNTXAD,fth1,FtHancock1,1291 LASCA RD,,FORT HANCOCK,TEXAS,79839,US,MOUNTAIN TIME,-7,31.173883,-105.700943,
ELPTTXDS,elp2,ElPaso2,12340 MERCANTILE AVE,,EL PASO,TEXAS,79928,US,MOUNTAIN TIME,-7,31.703833,-106.27626,
BNSNAZBP,wlk2,WillowLake2,N OCOTILLO RD @ CAMINO DE LA COYOTA,,BENSON,ARIZONA,85602,US,MOUNTAIN TIME,-7,32.079563,-110.349648,
AGULAZAB,agl1,Aguila1,5 AGUILA RD @ N EAGLE EYE RD,Aguila-LH,WICKENBURG,ARIZONA,85390,US,MOUNTAIN TIME,-7,33.872169,-113.179001,
DYTNOH01,day3,Dayton3,732 GERMANTOWN ST,,DAYTON,OHIO,45402,US,EASTERN TIME,-5,39.75153,-84.20649,
DYTOOHBF,day4,Dayton4,600 S BROADWAY ST,,DAYTON,OHIO,45417,US,EASTERN TIME,-5,39.745789,-84.214409,
TOROONXN,tor2,Toronto2,151 FRONT ST W,,TORONTO,ONTARIO,M5J 2N1,CA,EASTERN TIME,-5,43.644642,-79.384171,
FRZRPAAM,frz1,Frazer1,60 N BACTON HILL RD,,FRAZER,PENNSYLVANIA,19355,US,EASTERN TIME,-5,40.050526,-75.585365,
AUSTTX90,aus7,Austin7,621 N PLEASANT VALLEY RD,IXC COMMUNICATIONS,AUSTIN,TEXAS,78702,US,CENTRAL TIME,-6,30.25845,-97.70993,
LGNGCACX,lgn1,LagunaNiguel1,27324 CAMINO CAPISTRANO,BUILDING SOUTH,LAGUNA NIGUEL,CALIFORNIA,92677,US,PACIFIC TIME,-8,33.565979,-117.673775,
ALBZNYAW,alb4,Albany4,55 MCALPIN ST,,ALBANY,NEW YORK,12209,US,EASTERN TIME,-5,42.637611,-73.787354,
MTRLPQGZ,mon2,Montreal2,1250 REN??-L??VESQUE BOUL O,,MONTREAL,QUEBEC,H3B 4W8,CA,EASTERN TIME,-5,45.497269,-73.570419,
SVNHTNAM,lut1,Lutts1,9150 HIGHWAY 203,,SAVANNAH,TENNESSEE,38372,US,CENTRAL TIME,-6,35.159489,-88.06131,
GRVGCO20,enw2,Englewood2,7400 E ORCHARD RD,,GREENWOOD VILLAGE,COLORADO,80111,US,MOUNTAIN TIME,-7,39.60873,-104.902809,
HNVIALNX,htv1,Huntsville1,2031 BLUE SPRING RD NW,,HUNTSVILLE,ALABAMA,35810,US,CENTRAL TIME,-6,34.750835,-86.603401,
BUVLALAB,bln1,Blountsville1,70415 MAIN ST,,BLOUNTSVILLE,ALABAMA,35031,US,CENTRAL TIME,-6,34.097355,-86.57811,
NSVPTNEP,nvl5,Nashville5,420 WOODFOLK AVE,,NASHVILLE,TENNESSEE,37207,US,CENTRAL TIME,-6,36.215351,-86.784294,
NSVLTNCH,nvl6,Nashville6,409 ELYSIAN FIELDS RD,,NASHVILLE,TENNESSEE,37211,US,CENTRAL TIME,-6,36.086014,-86.730927,
NWPLNYBH,nwp1,NewPaltz1,I-87 @ HWY 299,,NEW PALTZ,NEW YORK,12561,US,PACIFIC TIME,-8,41.74139,-74.065002,
NWPLNYBP,nwp2,NewPaltz2,91 S OHIOVILLE RD,,NEW PALTZ,NEW YORK,12561,US,EASTERN TIME,-5,41.728123,-74.060753,
PGHKNYHX,nwp3,NewPaltz3,2455 SOUTH RD,BUILDING 710,POUGHKEEPSIE,NEW YORK,12601,US,EASTERN TIME,-5,41.657131,-73.937828,
PGHKNYVR,nwp4,NewPaltz4,2455 SOUTH RD,BUILDING 10,POUGHKEEPSIE,NEW YORK,12601,US,EASTERN TIME,-5,41.659328,-73.931358,
SOBYCTIB,sob1,Southbury1,150 KETTLETOWN RD,,SOUTHBURY,CONNECTICUT,6488,US,EASTERN TIME,-5,41.469372,-73.211494,
PTLDORPB,por5,Portland5,921 SW WASHINGTON ST,PITTOCK BLOCK BUILDING,PORTLAND,OREGON,97205,US,PACIFIC TIME,-8,45.521214,-122.680855,
CLSNNE01,cub1,Culbertson1,TAYLOR ST @ USHWY 6,,CULBERTSON,NEBRASKA,69024,US,CENTRAL TIME,-6,40.233891,-100.843056,
BNSHGEAA,bns1,Bensheim1,STR ROBERT-BOSCH-STR,,BENSHEIM,HESSE,64625,DE,CET  CENTRAL EUROPEAN,1,49.67057,8.584024,
BRNHGEAA,brn1,Bornheim1,5 MARIE-CURIE-STR,,BORNHEIM,NORTH RHINE-WESTPHALIA,53332,DE,CET  CENTRAL EUROPEAN,1,50.801022,6.95786,
BRNSOKAF,bdl1,Barnsdall1,565 CORT 2401,,BARNSDALL,OKLAHOMA,74002,US,CENTRAL TIME,-6,36.607834,-96.151222,
BRSRENAB,brs1,Broadstairs1,THANET REACH BUSINESS PARK,,BROADSTAIRS,KENT,CT10 2QQ,GB,"DUBLIN,EDINBURGH,LONDON,LISBON",0,51.358887,1.406164,
BRISNY01,ilp1,IslandPark1,1 MCCARTHY RD,,ISLAND PARK,NEW YORK,11558,US,EASTERN TIME,-5,40.613712,-73.646202,
BRNSORAJ,buo1,Burns1,MILEPOST 137.4 US HWY 20,BURNS-LH,BURNS,OREGON,97740,US,PACIFIC TIME,-8,43.585766,-119.06176,
NHRCORXA,nhr1,NorthHarney1,4 MI W OF CRANE,,NORTH HARNEY COUNTY,OREGON,97720,US,PST,-8,43.439751,-118.670326,
SLLKORAA,slk1,SilverLakeOR1,CR 5-10 @ CR 5-14,,SILVER LAKE,OREGON,97638,US,PACIFIC TIME,-8,43.282799,-120.624199,
GNCYGTBR,xgt2,Guatemala2,"46 CALLE 24-50, ZONA 12 ZENTRO PLAZA SUR BODEGA 3",,GUATEMALA,GUATEMALA,1012,GT,CENTRAL TIME,-6,14.566889,-90.546135,
BRTHORAA,bth1,Brothers1,41750 E HIGHWAY 20,Hampton-LH,BROTHERS,OREGON,97712,US,PACIFIC TIME,-8,43.665749,-120.224609,
CLWLIDMA,clw1,Caldwell1,701 CLEVELAND BLVD,,CALDWELL,IDAHO,83605,US,MOUNTAIN TIME,-7,43.665009,-116.690323,
BOISIDXS,boi3,Boise3,1103 W MILLER ST,,BOISE,IDAHO,83702,US,MOUNTAIN TIME,-7,43.61372,-116.210983,
BOISIDWK,boi4,Boise4,4696 S HOLCOMB RD,,BOISE,IDAHO,83706,US,MOUNTAIN TIME,-7,43.3311,-116.091301,
VALEORAF,vlo1,Vale1,3651 LYTLE BLVD,,VALE,OREGON,97918,US,MOUNTAIN TIME,-7,43.960976,-117.229401,
JNTRORAC,jnt1,Juntura1,HIGHWAY 20 & MP 210.5,,JUNTURA,OREGON,97911,US,MOUNTAIN TIME,-7,43.746384,-118.082443,
DWSYORAA,dws1,Drewsey1,HIGHWAY 20 & MP 174,,DREWSEY,OREGON,97904,US,MOUNTAIN TIME,-7,43.751934,-118.418823,
TBTSMO01,tbb1,Tebbetts1,4873 STATE ROAD AA,,TEBBETTS,MISSOURI,65080,US,CENTRAL TIME,-6,38.605698,-91.992813,
NRLNNC01,wse1,Wise1,1407 US HIGHWAY 1 N,,NORLINA,NORTH CAROLINA,27563,US,EASTERN TIME,-5,36.47094,-78.17308,
ELSGCABS,lax16,LosAngeles16,1920 E MAPLE AVE,,EL SEGUNDO,CALIFORNIA,90245,US,PACIFIC TIME,-8,33.926071,-118.394119,
MLUAHIAK,hon1,Honolulu1,550 PAIEA ST,,HONOLULU,HAWAII,96819,US,"HAWAII, TAHITI",-10,21.335417,-157.914886,
VANDWAJJ,por6,Portland6,5400 NE 15TH AVE,,VANCOUVER,WASHINGTON,98663,US,PACIFIC TIME,-8,45.656097,-122.656746,
ONTRCAOY,rsd2,Riverside2,5351 E AIRPORT DR,,ONTARIO,CALIFORNIA,91761,US,PACIFIC TIME,-8,34.062683,-117.533241,
MIVLMDBN,mvl1,Millersville1,I-97 & BRIGHTVIEW,,MILLERSVILLE,MARYLAND,21108,US,EASTERN TIME,-5,39.094681,-76.620117,
TUSTCACP,tus4,Tustin4,2792 WALNUT AVE,,TUSTIN,CALIFORNIA,92780,US,PACIFIC TIME,-8,33.714119,-117.80574,
OCSDCALO,ocs1,Oceanside1,1806 MISSION AVE,,OCEANSIDE,CALIFORNIA,92054,US,PACIFIC TIME,-8,33.203239,-117.366203,
SNDKCAYC,sdg5,SanDiego5,4787 MERCURY ST,,SAN DIEGO,CALIFORNIA,92111,US,PACIFIC TIME,-8,32.82885,-117.148392,
SNFDCAPR,sfo5,SanFrancisco5,665 3RD ST,,SAN FRANCISCO,CALIFORNIA,94107,US,PACIFIC TIME,-8,37.779305,-122.393089,
AZUSCA21,lax17,LosAngeles17,939 N VERNON AVE,,AZUSA,CALIFORNIA,91702,US,PACIFIC TIME,-8,34.138592,-117.916832,
LSANCAPB,lax18,LosAngeles18,2614 WHITTIER BLVD,,LOS ANGELES,CALIFORNIA,90023,US,PACIFIC TIME,-8,34.032661,-118.212685,
SHRNPACK,shn1,Sharon1,359 VINE AVE,,SHARON,PENNSYLVANIA,16146,US,EASTERN TIME,-5,41.237404,-80.507484,
LSAOCAGX,lax19,LosAngeles19,5549 WESTLAWN AVE,,LOS ANGELES,CALIFORNIA,90066,US,PACIFIC TIME,-8,33.979679,-118.41478,
HRNDVACH,wdc17,Washington17,460 SPRINGPARK PL,,HERNDON,VIRGINIA,20170,US,EASTERN TIME,-5,38.96162,-77.377563,
CLPPVAHP,clp1,Culpeper1,18151 TECHNOLOGY DR,,CULPEPER,VIRGINIA,22701,US,EASTERN TIME,-5,38.456753,-77.977829,
SNANCAPC,tus5,Tustin5,3011 W WARNER AVE,,SANTA ANA,CALIFORNIA,92704,US,PACIFIC TIME,-8,33.715214,-117.909462,
MIANFLHF,mia10,Miami10,15950 W DIXIE HWY,,NORTH MIAMI BEACH,FLORIDA,33162,US,EASTERN TIME,-5,25.92288,-80.156242,
LBTPOH04,clb5,Columbus5,306 GREIF PKWY,,DELAWARE,OHIO,43015,US,EASTERN TIME,-5,40.223228,-83.045219,
RONKTXFL,ftw5,FortWorth5,931 LITSEY RD,,ROANOKE,TEXAS,76262,US,CENTRAL TIME,-6,33.006699,-97.245544,
ENWDCOVF,enw3,Englewood3,12500 E ARAPAHOE RD,,ENGLEWOOD,COLORADO,80112,US,MOUNTAIN TIME,-7,39.59409,-104.843147,
DTITMI14,det8,Detroit8,1830 GRATIOT AVE,,DETROIT,MICHIGAN,48207,US,EASTERN TIME,-5,42.346355,-83.036469,
TOKYJPEZ,tok1,Tokyo1,3-8-21 HIGASHI SHINAGAWA,,SHINAGAWA-KU,TOKYO,104-0002,JP,"TOKYO, SEOUL",9,35.617504,139.748077,
CHWAHKAJ,hkg1,HongKong1,399 CHAI WAN RD,,CHAI WAN,,,HK,"PERTH, BEIJING, SINGAPORE",8,22.2661,114.246521,
SNGQSIOM,sng1,Singapore1,26A AYER RAJAH CRESCENT,,SINGAPORE,SOUTH WEST,139963,SG,"PERTH, BEIJING, SINGAPORE",8,1.29606,103.790497,
NYCMNY10,nyc15,NewYork15,1211 AVENUE OF THE AMERICAS,,NEW YORK,NEW YORK,10036,US,EASTERN TIME,-5,40.758469,-73.981964,
Z0011386,sha1,Shanghai1,4F BLDG 926 TONGPU RD,BLDG 926 TONGPU RD,ZHANJANG,SHANGHAI,ZHANJANG,CN,CCT,8,31.2244,121.475899,
ZHNJCIAB,zha1,Zhanjiang1,YINGBING RD,,ZHANJIANG,XINJIANG,524000,CN,CCT,8,21.197201,110.416702,
Z0011322,she1,ShenYang1,17/F HUAXIANG RD,,SHENYANG,SHANGHAI,110000,CN,CCT,8,41.805901,123.432098,
HMPSTXAT,hem1,Hempstead1,.5 MI E USHWY 290 & OLD HOWTH RD,,HEMPSTEAD,TEXAS,77445,US,CENTRAL TIME,-6,30.126053,-96.12394,
MDRDSPEO,mad2,Madrid2,CALLE VALGRANDE 6,,ALCOBENDAS,MADRID,28108,ES,CET  CENTRAL EUROPEAN,1,40.536793,-3.648559,
MDRDSPDB,mad3,Madrid3,CALLE MESENA 80,,MADRID,MADRID,28033,ES,CET  CENTRAL EUROPEAN,1,40.46619,-3.66026,
SOFABLAN,sof1,Sofia1,26A ANDREY SAHAROV,,SOFIA,SOFIA-GRAD,1784,BG,"ATHENS, BERIUT, CAIRO",2,42.65287,23.37327,
BCHRROAE,bch1,Bucharest1,8 MAT POMPEIU DIMITRIE,,BUCUREÅ?TI,BUCURESTI,20337,RO,"ATHENS, BERIUT, CAIRO",2,44.481686,26.120623,
TXRKTXXA,txr1,Texarkana1,500 OLIVE ST,,TEXARKANA,TEXAS,75501,US,CENTRAL TIME,-6,33.424759,-94.04351,
NDHMMAIO,bos5,Boston5,128 1ST AVE,,NEEDHAM,MASSACHUSETTS,2494,US,EASTERN TIME,-5,42.301281,-71.219582,
SOVLMAAB,bos6,Boston6,70 INNERBELT RD,,SOMERVILLE,MASSACHUSETTS,2143,US,EASTERN TIME,-5,42.376492,-71.079872,
NYCMNYAA,nyc16,NewYork16,32 AVENUE OF THE AMERICAS,,NEW YORK,NEW YORK,10013,US,EASTERN TIME,-5,40.720081,-74.00499,
SCCSNJCD,nwr7,Newark7,9 BROADCAST PLZ,,SECAUCUS,NEW JERSEY,7094,US,EASTERN TIME,-5,40.796101,-74.069283,
EGVGILBP,chi15,Chicago15,1905 LUNT AVE,,ELK GROVE VILLAGE,ILLINOIS,60007,US,CENTRAL TIME,-6,42.001099,-87.955193,
CHCGILWU,chi16,Chicago16,427 S LA SALLE ST,,CHICAGO,ILLINOIS,60605,US,CENTRAL TIME,-6,41.875889,-87.631454,
LSANCAVJ,lax20,LosAngeles20,900 N ALAMEDA ST,,LOS ANGELES,CALIFORNIA,90012,US,PACIFIC TIME,-8,34.058102,-118.23539,
STTOWAJM,sea10,Seattle10,140 4TH AVE N,FISHER PLAZA,SEATTLE,WASHINGTON,98109,US,PACIFIC TIME,-8,47.619411,-122.348068,
GDRQMIRM,grp2,GrandRapids2,718 IONIA AVE SW,,GRAND RAPIDS,MICHIGAN,49503,US,EASTERN TIME,-5,42.950169,-85.669098,
SNJSCAWE,sjo10,SanJose10,1735 LUNDY AVE,,SAN JOSE,CALIFORNIA,95131,US,PACIFIC TIME,-8,37.388271,-121.888428,
NWHLNCAE,ral5,Raleigh5,5300 SHEARON HARRIS RD,,NEW HILL,NORTH CAROLINA,27562,US,EASTERN TIME,-5,35.640373,-78.941757,
WRCSMANK,wrc1,Worcester1,474 MAIN ST,,WORCESTER,MASSACHUSETTS,1608,US,EASTERN TIME,-5,42.262413,-71.802673,
HSTNTX28,hou11,Houston11,20 E GREENWAY PLZ,,HOUSTON,TEXAS,77046,US,CENTRAL TIME,-6,29.73163,-95.436523,
HLBOOR13,por7,Portland7,19720 NW TANASBOURNE DR,WCI,HILLSBORO,OREGON,97124,US,PACIFIC TIME,-8,45.5438,-122.88031,
PNSCFLZQ,pca2,Pensacola2,221 N BAYLEN ST,,PENSACOLA,FLORIDA,32502,US,CENTRAL TIME,-6,30.415796,-87.217949,
DFSPFLAN,dfs1,DeFuniakSprings1,35 WELLS ST,,DEFUNIAK SPRINGS,FLORIDA,32435,US,CENTRAL TIME,-6,30.722538,-86.098038,
YGTWFLAF,ygt1,Youngstown1,12440 HIGHWAY 20,,YOUNGSTOWN,FLORIDA,32466,US,CENTRAL TIME,-6,30.43648,-85.499634,
FRPTPAAF,frp1,Freeport1,182 NORTHPOINTE BLVD,,FREEPORT,PENNSYLVANIA,16229,US,EASTERN TIME,-5,40.756599,-79.638283,
CHCGIL24,chi17,Chicago17,717 S WELLS ST,,CHICAGO,ILLINOIS,60607,US,CENTRAL TIME,-6,41.87291,-87.633263,
PERSCACC,rsd3,Riverside3,20021 SANTA ROSA MINE RD,,PERRIS,CALIFORNIA,92570,US,PACIFIC TIME,-8,33.758224,-117.315979,
LNNHMICA,lsg3,Lansing3,1206 MAY ST,,LANSING,MICHIGAN,48906,US,EASTERN TIME,-5,42.742008,-84.534416,
DRNDMIAD,fnt2,Flint2,302 ANN ARBOR ST,,DURAND,MICHIGAN,48429,US,EASTERN TIME,-5,42.909107,-83.980873,
FNTAKSAC,fta1,Fontana1,111.12 FT N/O AND 109.38 FT E/O N OSAGE ST & W DORMAN AVENUE,,FONTANA,KANSAS,66026,US,CENTRAL TIME,-6,38.400452,-94.874687,
TROYMIUO,det9,Detroit9,1950 CROOKS RD,,TROY,MICHIGAN,48084,US,EASTERN TIME,-5,42.55167,-83.16584,
TULSOKUW,tul3,Tulsa3,7140 S LEWIS AVE,,TULSA,OKLAHOMA,74136,US,CENTRAL TIME,-6,36.059643,-95.957878,
LSAQCATI,lax21,LosAngeles21,6801 HOLLYWOOD BLVD,,LOS ANGELES,CALIFORNIA,90028,US,PACIFIC TIME,-8,34.102619,-118.339508,
HLBOORHT,por8,Portland8,3935 NW ALOCLEK PL,BUILDING C,HILLSBORO,OREGON,97124,US,PACIFIC TIME,-8,45.549419,-122.891769,
CHPLFLAW,chp1,Chipley1,753 WEST BLVD,,CHIPLEY,FLORIDA,32428,US,EST,-5,30.774918,-85.5513,
CDPTPACJ,cou2,Coudersport2,65 DAMASCUS ST,,COUDERSPORT,PENNSYLVANIA,16915,US,CAT,-10,41.764751,-78.034698,
LNCSPAJW,lcp1,LancasterPA1,1720 HEMPSTEAD RD,,LANCASTER,PENNSYLVANIA,17601,US,EASTERN TIME,-5,40.04945,-76.251984,
SYRCNYCN,syr2,Syracuse2,2 S CLINTON SQ,THE ATRIUM BUILDING,SYRACUSE,NEW YORK,13202,US,EASTERN TIME,-5,43.050144,-76.152748,
MNCHCAAF,pta1,PointArena1,19700 S HIGHWAY 1,,MANCHESTER,CALIFORNIA,95459,US,PACIFIC TIME,-8,38.966431,-123.687531,
UKIHCAJC,uki1,Ukiah1,210 NORGARD LN,,UKIAH,CALIFORNIA,95482,US,PACIFIC TIME,-8,39.118252,-123.196175,
CLOKCAAK,clo1,ClearLakeOaks1,15709 E HIGHWAY 20,,CLEARLAKE OAKS,CALIFORNIA,95423,US,PACIFIC TIME,-8,39.008987,-122.61808,
ARBCCAAK,sac6,Sacramento6,6581 HAHN,,ARBUCKLE,CALIFORNIA,95912,US,PACIFIC TIME,-8,39.056782,-122.068871,
RBNSCAAD,sac7,Sacramento7,17305 STHWY 113,,ROBBINS,CALIFORNIA,95676,US,PACIFIC TIME,-8,38.870701,-121.704735,
KRWDNYBS,bgm1,Binghamton1,2297 US ROUTE 11,,KIRKWOOD,NEW YORK,13795,US,EASTERN TIME,-5,42.008621,-75.765648,
DRYDNYTY,ith1,Ithaca1,47 PINCKNEY RD,,ITHACA,NEW YORK,14850,US,EASTERN TIME,-5,42.47361,-76.40448,
AUBNNYBE,syr4,Syracuse4,32 OWASCO ST,,AUBURN,NEW YORK,13021,US,EASTERN TIME,-5,42.931492,-76.55928,
BRBOVTDH,brb1,Brattleboro1,28 VERNON ST,,BRATTLEBORO,VERMONT,5301,US,EASTERN TIME,-5,42.850288,-72.55616,
BGTNVTAH,bgt1,Bennington1,107 MCKINLEY ST,,BENNINGTON,VERMONT,5201,US,EASTERN TIME,-5,42.882099,-73.204399,
CLSPCO11,csp2,ColoradoSprings2,102 S TEJON ST,,COLORADO SPRINGS,COLORADO,80903,US,MOUNTAIN TIME,-7,38.831841,-104.824112,
HNVLMOAG,kac6,KansasCity6,502 PLAZA DR,,HARRISONVILLE,MISSOURI,64701,US,CENTRAL TIME,-6,38.65678,-94.36525,
BTLRMOAG,bmo1,Butler1,1106 W FORT SCOTT ST,,BUTLER,MISSOURI,64730,US,CENTRAL TIME,-6,38.257122,-94.354622,
LAMRMOBW,lmr1,Lamar1,22 N HIGHWAY HH,,LAMAR,MISSOURI,64759,US,CENTRAL TIME,-6,37.512936,-94.150558,
ARSNMOAD,amo1,AndersonMO1,RURAL ROUTE 2 BOX 2181 D,BOX 2181D,ANDERSON,MISSOURI,64831,US,CENTRAL TIME,-6,36.637699,-94.487099,
MNTTMOBL,mtt1,Monett1,335 FARM ROAD 1090,,MONETT,MISSOURI,65708,US,CENTRAL TIME,-6,36.919373,-93.900574,
SPFDMOZG,spf1,SpringfieldMO1,310 S FARM ROAD 205,,SPRINGFIELD,MISSOURI,65802,US,CENTRAL TIME,-6,37.20348,-93.169464,
GVSPMOAC,gvs1,Grovespring1,10731 HIGHWAY 5,,GROVESPRING,MISSOURI,65662,US,CENTRAL TIME,-6,37.448082,-92.596008,
NWBGMOAB,rla1,Rolla1,16402 COUNTY ROAD 6120,,NEWBURG,MISSOURI,65550,US,CENTRAL TIME,-6,37.723373,-91.875618,
SEVLMOAA,rla2,Rolla2,909 E HIGHWAY 8,,STEELVILLE,MISSOURI,65565,US,CENTRAL TIME,-6,37.976105,-91.209969,
PVLYMOAM,stl6,StLouis6,1779 HERKY HORINE RD,,PEVELY,MISSOURI,63070,US,CENTRAL TIME,-6,38.264969,-90.41275,
QUPWOKAL,jln2,Joplin2,6490 S 630 RD,,QUAPAW,OKLAHOMA,74363,US,CENTRAL TIME,-6,36.944408,-94.740379,
BGCBOKAD,bgc1,BigCabin1,MM279 E I-44 @ OTA ROW,,BIG CABIN,OKLAHOMA,74332,US,CENTRAL TIME,-6,36.5238,-95.2537,
ABNRDKAA,abm1,Aabenraa1,10 EGEVEJ,,AABENRAA,,6200,DK,CET  CENTRAL EUROPEAN,1,55.064522,9.36706,
ADNCFRAB,adn1,Andancette1,ROUTE DEPARTEMENTALE 1 257,,ANDANCETTE,ALVERNIA-RODANO-ALPI,26140,FR,CET  CENTRAL EUROPEAN,1,45.245083,4.805111,
AHASGEAA,aha1,Ahaus1,SCHUMACHERRING / BOSCHSTR,ILA AHAUS,AHAUS,NORTH RHINE-WESTPHALIA,48683,DE,CET  CENTRAL EUROPEAN,1,52.080769,7.039667,
LSBNPOAT,lis1,Lisbon1,14 AVENIDA SEVERIANO FALC?¤O,,LOURES,LISBOA,2685,PT,"DUBLIN,EDINBURGH,LONDON,LISBON",0,38.787918,-9.123356,
OKRGORAG,okr1,Oakridge1,76228 FISH HATCHERY RD,,OAKRIDGE,OREGON,97463,US,PACIFIC TIME,-8,43.741524,-122.44294,
ALBRFRAA,abf1,Albert1,PARC DACTIVITES HENRY POTEZ,ILA,ALBERT,PICARDIE,80300,FR,CET  CENTRAL EUROPEAN,1,50.011013,2.669888,
ALTNGE01,acn1,Altencreussen1,8016 FUNKENDORF,,PREBITZ,BAVARIA,95473,DE,CET  CENTRAL EUROPEAN,1,49.809021,11.69052,
ALVSSWAA,alv1,Alvesta1,HIGHWAY 27,ILA HJORTSBERGA,SJOATORP,VASTRA GOTALAND COUNTY,342 93,SE,CET  CENTRAL EUROPEAN,1,56.916546,14.420124,
ANGLSWAA,ang1,Angelholm1,MAESTAREGATAN,ILA MUNKA-LJUNGBY,ANGELHOLM,SKANE COUNTY,266 32,SE,CET  CENTRAL EUROPEAN,1,56.253429,12.961409,
ARJNSWAA,arj1,Arljang1,HIGHWAY E18,ILA ARLJANG,ARJANG,VARMLAND COUNTY,672 91,SE,CET  CENTRAL EUROPEAN,1,59.406231,12.126038,
ARRSFRAA,arr1,Arras1,ZAC ARTOIPOLE,,ARRAS,NORD-PAS-DE-CALAIS,62000,FR,CET  CENTRAL EUROPEAN,1,50.272923,2.851049,
ARTHFRAA,art1,Artenay1,LIEU DIT LE MOULIN DAUVILLIERS,,ARTENAY,CENTRE-LOIRE VALLEY,45410,FR,CET  CENTRAL EUROPEAN,1,48.063259,1.86993,
AVECFRAA,ave1,Chatellerault1,1 RUE VARENNES,,AVAILLES EN CHATELLERAULT,NEW AQUITAINE,86530,FR,CET  CENTRAL EUROPEAN,1,46.76046,0.55496,
AVNCSZAA,avn1,Avenches1,INDUSTRIEZONE NEXT TO HIGHWAY,,AVENCHES,VAUD ,1580,CH,CET  CENTRAL EUROPEAN,1,46.879574,7.040941,
SBNDINSD,sbd1,SouthBend1,1140 FRANKLIN ST,,SOUTH BEND,INDIANA,46601,US,EASTERN TIME,-5,41.662239,-86.254395,
GUFDPA01,chb1,Chambersburg1,S 3RD ST & ALLEMAN RD,,CHAMBERSBURG,PENNSYLVANIA,17201,US,EASTERN TIME,-5,39.933292,-77.657928,
SHPSINAJ,shp1,Shipshewana1,8210 USHWY 20,,SHIPSHEWANA,INDIANA,46565,US,EASTERN TIME,-5,41.653702,-85.584785,
ANGLINJD,ago1,Angola1,832 E US HIGHWAY 20,,ANGOLA,INDIANA,46703,US,EASTERN TIME,-5,41.634472,-84.969765,
FYTTOHAG,fyt1,Fayette1,14975 COUNTY ROAD 19,,FAYETTE,OHIO,43521,US,EASTERN TIME,-5,41.6819,-84.230553,
TOLEOHBR,tol3,Toledo3,639 OLIVER ST,,TOLEDO,OHIO,43609,US,EASTERN TIME,-5,41.63866,-83.547241,
VCKROHAB,vck1,Vickery1,4577 STATE ROUTE 412,,VICKERY,OHIO,43464,US,EASTERN TIME,-5,41.370529,-82.955139,
AMHROHAN,cle10,Cleveland10,8039 PYLE RD,,AMHERST,OHIO,44001,US,EASTERN TIME,-5,41.337181,-82.241699,
BLTOMDRS,bal5,Baltimore5,601 E PRATT ST,,BALTIMORE,MARYLAND,21202,US,EASTERN TIME,-5,39.286129,-76.607208,
CHTNINEU,gry2,Gary2,1170 N 400 E,,CHESTERTON,INDIANA,46304,US,CENTRAL TIME,-6,41.60273,-86.995033,
SNLOCAAE,sbp2,SanLuisObispo2,9401 LOS OSOS VALLEY RD,,SAN LUIS OBISPO,CALIFORNIA,93405,US,PACIFIC TIME,-8,35.27742,-120.718918,
LSOSCAAI,oso1,LosOsos1,1101 LOS OLIVOS AVE,,LOS OSOS,CALIFORNIA,93402,US,PACIFIC TIME,-8,35.31263,-120.831429,
PVLYMOAJ,stl7,StLouis7,1803 HERKY HORINE RD,,PEVELY,MISSOURI,63070,US,CENTRAL TIME,-6,38.265808,-90.411598,
RVDLILBC,chi18,Chicago18,62 E 137TH ST,,RIVERDALE,ILLINOIS,60827,US,CENTRAL TIME,-6,41.646744,-87.618835,
VLPRINFD,gry3,Gary3,633 POPLAR ST,,VALPARAISO,INDIANA,46383,US,CENTRAL TIME,-6,41.475193,-87.053398,
SBNDIN11,sbd2,SouthBend2,506 W SOUTH ST,,SOUTH BEND,INDIANA,46601,US,EASTERN TIME,-5,41.669342,-86.255928,
SCHLMIBC,scl2,Schoolcraft2,6990 W XY AVE,,SCHOOLCRAFT,MICHIGAN,49087,US,EASTERN TIME,-5,42.092781,-85.684601,
CHCGILAE,chi19,Chicago19,601 W POLK ST,,CHICAGO,ILLINOIS,60607,US,CENTRAL TIME,-6,41.871578,-87.643051,
RCMDVA94,rch3,Richmond3,3600 W BROAD ST,,RICHMOND,VIRGINIA,23230,US,EASTERN TIME,-5,37.569069,-77.477081,
RSTNVA14,wdc18,Washington18,12100 SUNRISE VALLEY DR,,RESTON,VIRGINIA,20191,US,EASTERN TIME,-5,38.950661,-77.364517,
RYNLGAMG,ryn1,Reynolds1,1067 TOMMY PURVIS RD,,REYNOLDS,GEORGIA,31076,US,EASTERN TIME,-5,32.512112,-84.126663,
CMLLGAAU,aby2,AlbanyGA2,4110 MOUNT ZION RD,,CAMILLA,GEORGIA,31730,US,EASTERN TIME,-5,31.219982,-84.169655,
TLHTFLRV,tal3,Tallahassee3,4930 GUM RD,,TALLAHASSEE,FLORIDA,32304,US,EASTERN TIME,-5,30.448071,-84.359955,
RCMFVAIA,rch4,Richmond4,4233 CAROLINA AVE,,RICHMOND,VIRGINIA,23222,US,EASTERN TIME,-5,37.591709,-77.410805,
Z0010654,hou12,Houston12,4261 SOUTHWEST FWY**USE HSTPTXNI**,,HOUSTON,TEXAS,77027,US,CAT,-10,29.729261,-95.447144,
CHCGILBL,chi20,Chicago20,205 N MICHIGAN AVE,,CHICAGO,ILLINOIS,60601,US,CENTRAL TIME,-6,41.886028,-87.624123,
LKMRFLAJ,orl7,Orlando7,35 SKYLINE DR,WOFL,LAKE MARY,FLORIDA,32746,US,EASTERN TIME,-5,28.737432,-81.369019,
NYCNNYDF,nyc17,NewYork17,205 E 67TH ST,,NEW YORK,NEW YORK,10065,US,EASTERN TIME,-5,40.76635,-73.962181,
PHNYAZAT,phx10,Phoenix10,511 W ADAMS ST,,PHOENIX,ARIZONA,85003,US,MOUNTAIN TIME,-7,33.448761,-112.080811,
LSANCANL,lax22,LosAngeles22,1999 S BUNDY DR,,LOS ANGELES,CALIFORNIA,90025,US,PACIFIC TIME,-8,34.034,-118.455635,
WASHDCJZ,wdc19,Washington19,5151 WISCONSIN AVE NW,,WASHINGTON,DISTRICT OF COLUMBIA,20016,US,EASTERN TIME,-5,38.956661,-77.083054,
PHLAPAZX,phi9,Philadelphia9,330 MARKET ST,,PHILADELPHIA,PENNSYLVANIA,19106,US,EASTERN TIME,-5,39.949951,-75.14698,
AUSVTXAI,aus8,Austin8,119 E 10TH ST,,AUSTIN,TEXAS,78701,US,CENTRAL TIME,-6,30.271496,-97.740692,
ATLDGAFO,atl11,Atlanta11,1551 BRIARCLIFF RD NE,,ATLANTA,GEORGIA,30306,US,EASTERN TIME,-5,33.796589,-84.335449,
EDPRMNCB,min6,Minneapolis6,11358 VIKING DR,,EDEN PRAIRIE,MINNESOTA,55344,US,CENTRAL TIME,-6,44.8638,-93.420212,
DLLATXNO,dal13,Dallas13,400 N GRIFFIN ST,,DALLAS,TEXAS,75202,US,CENTRAL TIME,-6,32.781826,-96.803307,
SFLDMIMC,det10,Detroit10,16550 W 9 MILE RD,,SOUTHFIELD,MICHIGAN,48075,US,EASTERN TIME,-5,42.460606,-83.213448,
HYPKFLAC,tmp9,Tampa9,3213 W KENNEDY BLVD,,TAMPA,FLORIDA,33609,US,EASTERN TIME,-5,27.945339,-82.496384,
MMPHTNTB,mem2,Memphis2,485 S HIGHLAND ST,FOX 13 - WHBQ-TV,MEMPHIS,TENNESSEE,38111,US,CENTRAL TIME,-6,35.118206,-89.945663,
DDHMMAAH,bos7,Boston7,25 FOX DR,,DEDHAM,MASSACHUSETTS,2026,US,EASTERN TIME,-5,42.230419,-71.179962,
STTLWAHJ,sea11,Seattle11,2200 6TH AVE,,SEATTLE,WASHINGTON,98121,US,PACIFIC TIME,-8,47.616409,-122.341118,
CLEVOHEE,cle11,Cleveland11,5800 S MARGINAL RD,,CLEVELAND,OHIO,44103,US,CAT,-10,41.532536,-81.647064,
DNVUCOHU,den8,Denver8,501 WAZEE ST,,DENVER,COLORADO,80204,US,MOUNTAIN TIME,-7,39.745029,-105.012009,
STLSMOJN,stl8,StLouis8,5915 BERTHOLD AVE,,ST LOUIS,MISSOURI,63110,US,CAT,-10,38.629314,-90.285522,
KSCYMOTF,kac7,KansasCity7,3030 SUMMIT ST,,KANSAS CITY,MISSOURI,64108,US,CENTRAL TIME,-6,39.07262,-94.594475,
BRDRWIBH,mlw3,Milwaukee3,9001 N GREEN BAY RD,WITI TV6,BROWN DEER,WISCONSIN,53209,US,CENTRAL TIME,-6,43.181969,-87.963783,
SLKCUTTL,slc5,SaltLakeCity5,5020 W AMELIA EARHART DR,,SALT LAKE CITY,UTAH,84116,US,MOUNTAIN TIME,-7,40.776932,-112.011063,
BRHOALEM,bir3,Birmingham3,1720 VALLEY VIEW DR,,BIRMINGHAM,ALABAMA,35209,US,CENTRAL TIME,-6,33.489891,-86.798859,
HGPNNCEY,gbo2,Greensboro2,2005 FRANCIS ST,WGHP,HIGH POINT,NORTH CAROLINA,27263,US,EASTERN TIME,-5,35.937981,-79.979309,
WLANCAAX,lax23,LosAngeles23,2044 ARMACOST AVE,,LOS ANGELES,CALIFORNIA,90025,US,PACIFIC TIME,-8,34.033916,-118.453323,
CHCGILHZ,chi21,Chicago21,55 W WACKER DR,,CHICAGO,ILLINOIS,60601,US,CENTRAL TIME,-6,41.886681,-87.630043,
SNFDCADI,sfo6,SanFrancisco6,901 BATTERY ST,,SAN FRANCISCO,CALIFORNIA,94111,US,PACIFIC TIME,-8,37.799759,-122.401649,
NBVGFLAI,mia11,Miami11,1440 79TH ST CSWY,,NORTH BAY VILLAGE,FLORIDA,33141,US,CAT,-10,25.848553,-80.154594,
NWTNMADW,bos8,Boston8,1230 WASHINGTON ST,,NEWTON,MASSACHUSETTS,2465,US,EASTERN TIME,-5,42.348789,-71.223999,
ATLBGABB,atl12,Atlanta12,260 14TH ST NW,,ATLANTA,GEORGIA,30318,US,EASTERN TIME,-5,33.785641,-84.395554,
DNVRCOEI,den9,Denver9,100 E SPEER BLVD,KDVR FOX 31,DENVER,COLORADO,80203,US,MOUNTAIN TIME,-7,39.724571,-104.985718,
HFMNTXAK,hou13,Houston13,33902 HUFFMAN-CLEVELAND RD,,HUFFMAN,TEXAS,77336,US,CENTRAL TIME,-6,30.105864,-95.110527,
BNNGCABY,sbo2,SanBernadino2,2010 E WESTWARD AVE,,BANNING,CALIFORNIA,92220,US,PACIFIC TIME,-8,33.917912,-116.853203,
INDICAKI,ino1,Indio1,23501 WHEEL RD,,INDIO,CALIFORNIA,92201,US,PACIFIC TIME,-8,33.733685,-116.239296,
SNTCCAIE,sjo11,SanJose11,1350 DUANE AVE,,SANTA CLARA,CALIFORNIA,95054,US,PACIFIC TIME,-8,37.379021,-121.95504,
